[{"name": "\u897f\u5b89\u57ce\u5899", "location": {"lat": 34.25321785828024, "lng": 108.94356940023889}, "address": "\u9655\u897f\u7701\u897f\u5b89\u5e02\u7891\u6797\u533a\u5357\u5927\u8857", "province": "\u9655\u897f\u7701", "city": "\u897f\u5b89\u5e02", "area": "\u7891\u6797\u533a", "street_id": "279fd0de9f76357b90114ce9", "telephone": "(029)87272792", "detail": 1, "uid": "6e7e1320b113d8e3bea82230", "detail_info": {"distance": 874, "tag": "\u65c5\u6e38\u666f\u70b9;\u6587\u7269\u53e4\u8ff9", "navi_location": {"lng": 108.95428871168, "lat": 34.254593262873}, "type": "scope", "detail_url": "http://api.map.baidu.com/place/detail?uid=6e7e1320b113d8e3bea82230&output=html&source=placeapi_v2", "overall_rating": "4.3", "comment_num": "200", "children": [], "lat": 34.25321785828024, "lng": 108.94356940023889}}, {"name": "\u897f\u5b89\u7891\u6797\u535a\u7269\u9986", "location": {"lat": 34.25545450128244, "lng": 108.94804180377513}, "address": "\u897f\u5b89\u5e02\u7891\u6797\u533a\u4e09\u5b66\u885715\u53f7", "province": "\u9655\u897f\u7701", "city": "\u897f\u5b89\u5e02", "area": "\u7891\u6797\u533a", "street_id": "ff3fc87294d79fc39ee321f4", "telephone": "(029)87210764", "detail": 1, "uid": "ff3fc87294d79fc39ee321f4", "detail_info": {"distance": 807, "tag": "\u65c5\u6e38\u666f\u70b9;\u535a\u7269\u9986", "navi_location": {"lng": 108.95973896944, "lat": 34.258572512149}, "type": "scope", "detail_url": "http://api.map.baidu.com/place/detail?uid=ff3fc87294d79fc39ee321f4&output=html&source=placeapi_v2", "overall_rating": "4.7", "comment_num": "136", "children": [], "lat": 34.25545450128244, "lng": 108.94804180377513}}, {"name": "\u897f\u5b89\u949f\u697c", "location": {"lat": 34.26105005572973, "lng": 108.94237005134782}, "address": "\u9655\u897f\u7701\u897f\u5b89\u5e02\u83b2\u6e56\u533a\u897f\u5b89\u56db\u6761\u5927\u8857\u4ea4\u6c47\u5904\u897f\u5b89\u5730\u94c12\u53f7\u7ebf\u949f\u697c\u7ad9C\u51fa\u53e3\u6b63\u5bf9\u9762", "province": "\u9655\u897f\u7701", "city": "\u897f\u5b89\u5e02", "area": "\u7891\u6797\u533a", "street_id": "1bf85b2519cd8ea5a1a93414", "telephone": "(029)87214665", "detail": 1, "uid": "1bf85b2519cd8ea5a1a93414", "detail_info": {"distance": 3, "tag": "\u65c5\u6e38\u666f\u70b9;\u666f\u70b9", "navi_location": {"lng": 108.95331467201, "lat": 34.267061644681}, "type": "scope", "detail_url": "http://api.map.baidu.com/place/detail?uid=1bf85b2519cd8ea5a1a93414&output=html&source=placeapi_v2", "overall_rating": "4.5", "comment_num": "200", "children": [], "lat": 34.26105005572973, "lng": 108.94237005134782}}, {"name": "\u5317\u9662\u95e8", "location": {"lat": 34.26572137700878, "lng": 108.93912364086637}, "address": "\u897f\u5b89\u5e02\u83b2\u6e56\u533a\u5317\u9662\u95e8\u4e0e\u897f\u534e\u95e8\u5927\u8857\u4ea4\u6c47\u5904", "province": "\u9655\u897f\u7701", "city": "\u897f\u5b89\u5e02", "area": "\u83b2\u6e56\u533a", "street_id": "cc0849a08de1952d94031900", "detail": 1, "uid": "cc0849a08de1952d94031900", "detail_info": {"distance": 595, "tag": "\u65c5\u6e38\u666f\u70b9;\u5176\u4ed6", "navi_location": {"lng": 108.95002548417, "lat": 34.270616177699}, "type": "scope", "detail_url": "http://api.map.baidu.com/place/detail?uid=cc0849a08de1952d94031900&output=html&source=placeapi_v2", "overall_rating": "4.5", "image_num": "4", "comment_num": "2", "children": [], "lat": 34.26572137700878, "lng": 108.93912364086637}}, {"name": "\u9f13\u697c", "location": {"lat": 34.261799728507086, "lng": 108.93884974581712}, "address": "\u897f\u5b89\u5e02\u83b2\u6e56\u533a\u897f\u5927\u88571\u53f7", "province": "\u9655\u897f\u7701", "city": "\u897f\u5b89\u5e02", "area": "\u83b2\u6e56\u533a", "street_id": "be54cde96e46724178f7967b", "telephone": "(029)87274580", "detail": 1, "uid": "be54cde96e46724178f7967b", "detail_info": {"distance": 330, "tag": "\u65c5\u6e38\u666f\u70b9;\u6587\u7269\u53e4\u8ff9", "navi_location": {"lng": 108.94995269267, "lat": 34.265692700645}, "type": "scope", "detail_url": "http://api.map.baidu.com/place/detail?uid=be54cde96e46724178f7967b&output=html&source=placeapi_v2", "overall_rating": "4.5", "comment_num": "200", "children": [], "lat": 34.261799728507086, "lng": 108.93884974581712}}, {"name": "\u6e58\u5b50\u5e99", "location": {"lat": 34.25440064029796, "lng": 108.93978420987759}, "address": "\u9655\u897f\u7701\u897f\u5b89\u5e02\u7891\u6797\u533a\u6e58\u5b50\u885718\u53f7", "province": "\u9655\u897f\u7701", "city": "\u897f\u5b89\u5e02", "area": "\u7891\u6797\u533a", "street_id": "b1c556e898ecb40cb426554e", "detail": 1, "uid": "b1c556e898ecb40cb426554e", "detail_info": {"distance": 777, "tag": "\u65c5\u6e38\u666f\u70b9;\u6587\u7269\u53e4\u8ff9", "navi_location": {"lng": 108.951255, "lat": 34.259015031596}, "type": "scope", "detail_url": "http://api.map.baidu.com/place/detail?uid=b1c556e898ecb40cb426554e&output=html&source=placeapi_v2", "overall_rating": "4.2", "image_num": "21", "comment_num": "184", "children": [], "lat": 34.25440064029796, "lng": 108.93978420987759}}, {"name": "\u6c38\u5b81\u95e8", "location": {"lat": 34.25350266811652, "lng": 108.94221228148837}, "address": "\u897f\u5b89\u5e02\u7891\u6797\u533a\u5357\u5927\u88572\u53f7", "province": "\u9655\u897f\u7701", "city": "\u897f\u5b89\u5e02", "area": "\u7891\u6797\u533a", "street_id": "9f97b1c543be7306b64f544e", "telephone": "(029)87272792", "detail": 1, "uid": "9f97b1c543be7306b64f544e", "detail_info": {"distance": 837, "tag": "\u65c5\u6e38\u666f\u70b9;\u6587\u7269\u53e4\u8ff9", "navi_location": {"lng": 108.9533833825, "lat": 34.258982789518}, "type": "scope", "detail_url": "http://api.map.baidu.com/place/detail?uid=9f97b1c543be7306b64f544e&output=html&source=placeapi_v2", "overall_rating": "4.8", "image_num": "141", "comment_num": "64", "children": [], "lat": 34.25350266811652, "lng": 108.94221228148837}}, {"name": "\u897f\u5b89\u6613\u4fd7\u793e", "location": {"lat": 34.26302984479049, "lng": 108.94418615519703}, "address": "\u897f\u5b89\u5e02\u65b0\u57ce\u533a", "province": "\u9655\u897f\u7701", "city": "\u897f\u5b89\u5e02", "area": "\u65b0\u57ce\u533a", "street_id": "72ba75f92bff1414b5147f2b", "detail": 1, "uid": "72ba75f92bff1414b5147f2b", "detail_info": {"distance": 281, "tag": "\u65c5\u6e38\u666f\u70b9;\u6587\u7269\u53e4\u8ff9", "navi_location": {"lng": 108.95535221486, "lat": 34.268035033813}, "type": "scope", "detail_url": "http://api.map.baidu.com/place/detail?uid=72ba75f92bff1414b5147f2b&output=html&source=placeapi_v2", "overall_rating": "3", "image_num": "9", "comment_num": "1", "children": [], "lat": 34.26302984479049, "lng": 108.94418615519703}}, {"name": "\u949f\u9f13\u697c\u5e7f\u573a", "location": {"lat": 34.26139797976732, "lng": 108.93790807708407}, "address": "\u9655\u897f\u7701\u897f\u5b89\u5e02\u83b2\u6e56\u533a\u5317\u9662\u95e8\u8857\u9053\u897f\u5927\u88571\u53f7", "province": "\u9655\u897f\u7701", "city": "\u897f\u5b89\u5e02", "area": "\u83b2\u6e56\u533a", "street_id": "d6df91c16cc0c86af7b9164d", "detail": 1, "uid": "d6df91c16cc0c86af7b9164d", "detail_info": {"distance": 408, "tag": "\u4f11\u95f2\u5a31\u4e50;\u4f11\u95f2\u5e7f\u573a", "navi_location": {"lng": 108.94825191019, "lat": 34.265692664024}, "type": "life", "detail_url": "http://api.map.baidu.com/place/detail?uid=d6df91c16cc0c86af7b9164d&output=html&source=placeapi_v2", "price": "54", "overall_rating": "4.3", "image_num": "21", "comment_num": "91", "children": [], "lat": 34.26139797976732, "lng": 108.93790807708407}}, {"name": "\u987a\u57ce\u5df7", "location": {"lat": 34.25362206666732, "lng": 108.94788042687404}, "address": "\u987a\u57ce\u5df7(\u7891\u6797\u533a\u5357\u95e8)", "province": "\u9655\u897f\u7701", "city": "\u897f\u5b89\u5e02", "area": "\u7891\u6797\u533a", "street_id": "4e956ce9d545d5cbae045744", "detail": 1, "uid": "4e956ce9d545d5cbae045744", "detail_info": {"distance": 963, "tag": "\u65c5\u6e38\u666f\u70b9;\u5176\u4ed6", "type": "scope", "detail_url": "http://api.map.baidu.com/place/detail?uid=4e956ce9d545d5cbae045744&output=html&source=placeapi_v2", "overall_rating": "0", "image_num": "3", "comment_num": "0", "children": [], "lat": 34.25362206666732, "lng": 108.94788042687404}}, {"name": "\u83b2\u6e56\u533a\u9ea6\u82cb\u8857\u5c0f\u5764\u56ed", "location": {"lat": 34.26791390375745, "lng": 108.93781377612963}, "address": "\u9655\u897f\u7701\u897f\u5b89\u5e02\u83b2\u6e56\u533a\u5c0f\u5764\u56ed37\u53f7", "province": "\u9655\u897f\u7701", "city": "\u897f\u5b89\u5e02", "area": "\u83b2\u6e56\u533a", "street_id": "dd2f295aa97b0ccba0acc499", "detail": 1, "uid": "dd2f295aa97b0ccba0acc499", "detail_info": {"distance": 864, "tag": "\u65c5\u6e38\u666f\u70b9;\u666f\u70b9", "navi_location": {"lng": 108.94949678736, "lat": 34.272562652122}, "type": "scope", "detail_url": "http://api.map.baidu.com/place/detail?uid=dd2f295aa97b0ccba0acc499&output=html&source=placeapi_v2", "children": [], "lat": 34.26791390375745, "lng": 108.93781377612963}}, {"name": "\u6613\u4fd7\u5386\u53f2\u6587\u5316\u8857\u533a", "location": {"lat": 34.261592641279364, "lng": 108.94336581923521}, "address": "\u9655\u897f\u7701\u897f\u5b89\u5e02\u65b0\u57ce\u533a\u4e1c\u5927\u8857\u4e0e\u5317\u5927\u8857\u4ea4\u53c9\u53e3", "province": "\u9655\u897f\u7701", "city": "\u897f\u5b89\u5e02", "area": "\u65b0\u57ce\u533a", "street_id": "41fa942899453bc072455b3a", "detail": 1, "uid": "41fa942899453bc072455b3a", "detail_info": {"distance": 113, "tag": "\u65c5\u6e38\u666f\u70b9;\u5176\u4ed6", "navi_location": {"lng": 108.95395070645, "lat": 34.266903473331}, "type": "scope", "detail_url": "http://api.map.baidu.com/place/detail?uid=41fa942899453bc072455b3a&output=html&source=placeapi_v2", "children": [], "lat": 34.261592641279364, "lng": 108.94336581923521}}, {"name": "\u6d52\u57ce\u53e4\u5a18", "location": {"lat": 34.25988628131857, "lng": 108.93484316834076}, "address": "\u9655\u897f\u7701\u897f\u5b89\u5e02\u7891\u6797\u533a\u5357\u5e7f\u6d4e\u8857107\u53f7", "province": "\u9655\u897f\u7701", "city": "\u897f\u5b89\u5e02", "area": "\u7891\u6797\u533a", "detail": 1, "uid": "3e56fb8fd7872be80c0e6b02", "detail_info": {"distance": 702, "tag": "\u65c5\u6e38\u666f\u70b9;\u6587\u7269\u53e4\u8ff9", "type": "scope", "detail_url": "http://api.map.baidu.com/place/detail?uid=3e56fb8fd7872be80c0e6b02&output=html&source=placeapi_v2", "overall_rating": "0", "comment_num": "1", "children": [], "lat": 34.25988628131857, "lng": 108.93484316834076}}, {"name": "\u5357\u95e8\u57ce\u697c", "location": {"lat": 34.2535220019295, "lng": 108.94249941398009}, "address": "\u897f\u5b89\u5e02\u7891\u6797\u533a\u5357\u9662\u95e8\u8857\u9053\u5357\u95e8", "province": "\u9655\u897f\u7701", "city": "\u897f\u5b89\u5e02", "area": "\u7891\u6797\u533a", "street_id": "30e048fec3568951c2f1cf46", "detail": 1, "uid": "30e048fec3568951c2f1cf46", "detail_info": {"distance": 835, "tag": "\u65c5\u6e38\u666f\u70b9;\u6587\u7269\u53e4\u8ff9", "navi_location": {"lng": 108.95355174022, "lat": 34.259060583043}, "type": "scope", "detail_url": "http://api.map.baidu.com/place/detail?uid=30e048fec3568951c2f1cf46&output=html&source=placeapi_v2", "overall_rating": "4.5", "comment_num": "11", "children": [], "lat": 34.2535220019295, "lng": 108.94249941398009}}, {"name": "\u5357\u95e8\u57ce\u5899\u62a4\u57ce\u6cb3\u6e38\u8239", "location": {"lat": 34.25309620478855, "lng": 108.93954485799925}, "address": "\u897f\u5b89\u5e02\u7891\u6797\u533a\u5357\u95e8\u5916\u897f\u4fa7\u897f\u73af\u57ce\u516c\u56ed(\u6c38\u5b81\u897f\u82d1)\u5411\u518550\u7c73", "province": "\u9655\u897f\u7701", "city": "\u897f\u5b89\u5e02", "area": "\u7891\u6797\u533a", "street_id": "ff2c35f8b7140ac8902ca346", "detail": 1, "uid": "ff2c35f8b7140ac8902ca346", "detail_info": {"distance": 923, "tag": "\u65c5\u6e38\u666f\u70b9;\u98ce\u666f\u533a", "navi_location": {"lng": 108.95267889898, "lat": 34.2578223008}, "type": "scope", "detail_url": "http://api.map.baidu.com/place/detail?uid=ff2c35f8b7140ac8902ca346&output=html&source=placeapi_v2", "overall_rating": "4.5", "comment_num": "98", "children": [], "lat": 34.25309620478855, "lng": 108.93954485799925}}, {"name": "\u660e\u79e6\u738b\u5e9c\u57ce\u5899\u9057\u5740", "location": {"lat": 34.26488065683527, "lng": 108.94805233574296}, "address": "\u897f\u5b89\u5e02\u65b0\u57ce\u533a\u7687\u57ce\u4e1c\u8def39\u53f7", "province": "\u9655\u897f\u7701", "city": "\u897f\u5b89\u5e02", "area": "\u65b0\u57ce\u533a", "street_id": "fb74fd5f802bebd50b69d9c2", "detail": 1, "uid": "fb74fd5f802bebd50b69d9c2", "detail_info": {"distance": 681, "tag": "\u65c5\u6e38\u666f\u70b9;\u6587\u7269\u53e4\u8ff9", "navi_location": {"lng": 108.96042481133, "lat": 34.269716966989}, "type": "scope", "detail_url": "http://api.map.baidu.com/place/detail?uid=fb74fd5f802bebd50b69d9c2&output=html&source=placeapi_v2", "overall_rating": "4.3", "comment_num": "37", "children": [], "lat": 34.26488065683527, "lng": 108.94805233574296}}, {"name": "\u56de\u6c11\u8857", "location": {"lat": 34.26219780387107, "lng": 108.93904535521507}, "address": "\u9655\u897f\u7701\u897f\u5b89\u5e02\u83b2\u6e56\u533a\u5317\u9662\u95e85\u53f7", "province": "\u9655\u897f\u7701", "city": "\u897f\u5b89\u5e02", "area": "\u83b2\u6e56\u533a", "street_id": "bff8fa7d9c8b08b9c8213d55", "detail": 1, "uid": "bff8fa7d9c8b08b9c8213d55", "detail_info": {"distance": 327, "tag": "\u7f8e\u98df;\u5176\u4ed6", "navi_location": {"lng": 108.95003235081, "lat": 34.266832179115}, "type": "scope", "detail_url": "http://api.map.baidu.com/place/detail?uid=bff8fa7d9c8b08b9c8213d55&output=html&source=placeapi_v2", "overall_rating": "3", "comment_num": "200", "children": [], "lat": 34.26219780387107, "lng": 108.93904535521507}}, {"name": "\u699c\u773c\u5e9c", "location": {"lat": 34.26442565285531, "lng": 108.93857377708532}, "address": "\u897f\u5b89\u5e02\u83b2\u6e56\u533a\u5317\u9662\u95e8144\u53f7", "province": "\u9655\u897f\u7701", "city": "\u897f\u5b89\u5e02", "area": "\u83b2\u6e56\u533a", "street_id": "323d7c8b508fea34a7c75669", "detail": 1, "uid": "323d7c8b508fea34a7c75669", "detail_info": {"distance": 507, "tag": "\u65c5\u6e38\u666f\u70b9;\u6587\u7269\u53e4\u8ff9", "navi_location": {"lng": 108.95016737871, "lat": 34.269125459623}, "type": "scope", "detail_url": "http://api.map.baidu.com/place/detail?uid=323d7c8b508fea34a7c75669&output=html&source=placeapi_v2", "overall_rating": "4.1", "comment_num": "18", "children": [], "lat": 34.26442565285531, "lng": 108.93857377708532}}, {"name": "\u897f\u5b89\u5e02\u57fa\u7763\u6559\u5357\u65b0\u8857\u793c\u62dc\u5802", "location": {"lat": 34.2625137614427, "lng": 108.94891002365371}, "address": "\u9655\u897f\u7701\u897f\u5b89\u5e02\u65b0\u57ce\u533a\u96c6\u8d24\u5df71\u53f7", "province": "\u9655\u897f\u7701", "city": "\u897f\u5b89\u5e02", "area": "\u65b0\u57ce\u533a", "street_id": "5da3eb5f7aa764aa40ab9a68", "telephone": "(029)87215757", "detail": 1, "uid": "5da3eb5f7aa764aa40ab9a68", "detail_info": {"distance": 627, "tag": "\u65c5\u6e38\u666f\u70b9;\u6559\u5802", "navi_location": {"lng": 108.96008100196, "lat": 34.26710290291}, "type": "scope", "detail_url": "http://api.map.baidu.com/place/detail?uid=5da3eb5f7aa764aa40ab9a68&output=html&source=placeapi_v2", "overall_rating": "3", "comment_num": "1", "children": [], "lat": 34.2625137614427, "lng": 108.94891002365371}}, {"name": "\u65e5\u672c\u98de\u673a\u8f70\u70b8\u897f\u5b89\u9057\u5740", "location": {"lat": 34.26670300500704, "lng": 108.93376396423349}, "address": "\u9655\u897f\u7701\u897f\u5b89\u5e02\u83b2\u6e56\u533a\u5149\u660e\u5df743\u53f7", "province": "\u9655\u897f\u7701", "city": "\u897f\u5b89\u5e02", "area": "\u83b2\u6e56\u533a", "street_id": "0946964873e062150aa8d483", "detail": 1, "uid": "0946964873e062150aa8d483", "detail_info": {"distance": 999, "tag": "\u65c5\u6e38\u666f\u70b9;\u6587\u7269\u53e4\u8ff9", "type": "scope", "detail_url": "http://api.map.baidu.com/place/detail?uid=0946964873e062150aa8d483&output=html&source=placeapi_v2", "overall_rating": "4.6", "comment_num": "17", "children": [], "lat": 34.26670300500704, "lng": 108.93376396423349}}, {"name": "\u5367\u9f99\u7985\u6797", "location": {"lat": 34.25570361513223, "lng": 108.95022263005218}, "address": "\u897f\u5b89\u5e02\u7891\u6797\u533a\u5f00\u901a\u897f\u5df766\u53f7", "province": "\u9655\u897f\u7701", "city": "\u897f\u5b89\u5e02", "area": "\u7891\u6797\u533a", "street_id": "dfc496b6e56d36ac8936eedb", "detail": 1, "uid": "dfc496b6e56d36ac8936eedb", "detail_info": {"distance": 931, "tag": "\u65c5\u6e38\u666f\u70b9;\u6587\u7269\u53e4\u8ff9", "navi_location": {"lng": 108.96123987625, "lat": 34.260311861418}, "type": "scope", "detail_url": "http://api.map.baidu.com/place/detail?uid=dfc496b6e56d36ac8936eedb&output=html&source=placeapi_v2", "overall_rating": "4.5", "comment_num": "112", "children": [], "lat": 34.25570361513223, "lng": 108.95022263005218}}, {"name": "\u5357\u95e8\u74ee\u57ce", "location": {"lat": 34.25304069224655, "lng": 108.94236996484153}, "address": "\u897f\u5b89\u5e02\u7891\u6797\u533a\u73af\u57ce\u5357\u8def\u897f\u5b89\u57ce\u5899(\u73af\u57ce\u5357\u8def)\u5185", "province": "\u9655\u897f\u7701", "city": "\u897f\u5b89\u5e02", "area": "\u7891\u6797\u533a", "street_id": "495d501f23858cacdc1e524c", "detail": 1, "uid": "495d501f23858cacdc1e524c", "detail_info": {"distance": 888, "tag": "\u65c5\u6e38\u666f\u70b9;\u666f\u70b9", "navi_location": {"lng": 108.95348204339, "lat": 34.258987854376}, "type": "scope", "detail_url": "http://api.map.baidu.com/place/detail?uid=495d501f23858cacdc1e524c&output=html&source=placeapi_v2", "overall_rating": "5", "comment_num": "1", "children": [], "lat": 34.25304069224655, "lng": 108.94236996484153}}, {"name": "\u5b9d\u5e86\u5bfa\u5854", "location": {"lat": 34.25479141637657, "lng": 108.94342771571966}, "address": "\u897f\u5b89\u5e02\u7891\u6797\u533a\u5357\u95e8\u5185\u4e66\u9662\u95e8\u8857\u53e3\u5317\u4fa7", "province": "\u9655\u897f\u7701", "city": "\u897f\u5b89\u5e02", "area": "\u7891\u6797\u533a", "street_id": "81d6a50983aff7406e20b94f", "detail": 1, "uid": "81d6a50983aff7406e20b94f", "detail_info": {"distance": 699, "tag": "\u65c5\u6e38\u666f\u70b9;\u6587\u7269\u53e4\u8ff9", "type": "scope", "detail_url": "http://api.map.baidu.com/place/detail?uid=81d6a50983aff7406e20b94f&output=html&source=placeapi_v2", "overall_rating": "4.2", "comment_num": "78", "children": [], "lat": 34.25479141637657, "lng": 108.94342771571966}}, {"name": "\u6587\u660c\u9601", "location": {"lat": 34.26245352175554, "lng": 108.93270963502798}, "address": "\u897f\u5927\u8857129\u53f7\u90fd\u57ce\u968d\u5e99\u6279\u53d1\u5e02\u573a\u4e00\u53f7", "province": "\u9655\u897f\u7701", "city": "\u897f\u5b89\u5e02", "area": "\u83b2\u6e56\u533a", "street_id": "75830a617d42722cab0dd8be", "detail": 1, "uid": "75830a617d42722cab0dd8be", "detail_info": {"distance": 895, "tag": "\u65c5\u6e38\u666f\u70b9;\u666f\u70b9", "type": "scope", "detail_url": "http://api.map.baidu.com/place/detail?uid=75830a617d42722cab0dd8be&output=html&source=placeapi_v2", "overall_rating": "4", "comment_num": "3", "children": [], "lat": 34.26245352175554, "lng": 108.93270963502798}}, {"name": "\u897f\u5b89\u5317\u5e7f\u6d4e\u8857\u6e05\u771f\u5bfa\u6587\u5316\u4e2d\u5fc3", "location": {"lat": 34.26282680119971, "lng": 108.93479976423014}, "address": "\u897f\u5b89\u5e02\u83b2\u6e56\u533a\u5317\u5e7f\u6d4e\u885783\u53f7", "province": "\u9655\u897f\u7701", "city": "\u897f\u5b89\u5e02", "area": "\u83b2\u6e56\u533a", "street_id": "b55e5d95bcbe502d167643f6", "detail": 1, "uid": "b55e5d95bcbe502d167643f6", "detail_info": {"distance": 717, "tag": "\u65c5\u6e38\u666f\u70b9;\u5176\u4ed6", "navi_location": {"lng": 108.94547203462, "lat": 34.267357327604}, "type": "scope", "detail_url": "http://api.map.baidu.com/place/detail?uid=b55e5d95bcbe502d167643f6&output=html&source=placeapi_v2", "comment_num": "1", "children": [], "lat": 34.26282680119971, "lng": 108.93479976423014}}, {"name": "\u5409\u5907\u771f\u5907\u7eaa\u5ff5\u56ed", "location": {"lat": 34.25324331173724, "lng": 108.94567096823494}, "address": "\u897f\u5b89\u5e02\u7891\u6797\u533a\u73af\u57ce\u5357\u8def\u897f\u5b89\u57ce\u5899(\u73af\u57ce\u5357\u8def)\u5185", "province": "\u9655\u897f\u7701", "city": "\u897f\u5b89\u5e02", "area": "\u7891\u6797\u533a", "street_id": "1da4c4003b5913d549fc8d6f", "detail": 1, "uid": "1da4c4003b5913d549fc8d6f", "detail_info": {"distance": 914, "tag": "\u65c5\u6e38\u666f\u70b9;\u666f\u70b9", "type": "scope", "detail_url": "http://api.map.baidu.com/place/detail?uid=1da4c4003b5913d549fc8d6f&output=html&source=placeapi_v2", "overall_rating": "4", "comment_num": "12", "children": [], "lat": 34.25324331173724, "lng": 108.94567096823494}}, {"name": "\u836f\u738b\u6545\u91cc", "location": {"lat": 34.26347285155276, "lng": 108.94426955083863}, "address": "\u897f\u5b89\u5e02\u65b0\u57ce\u533a\u897f\u4e00\u8def\u534e\u590f\u6545\u90fd\u4e1c", "province": "\u9655\u897f\u7701", "city": "\u897f\u5b89\u5e02", "area": "\u65b0\u57ce\u533a", "street_id": "2936a38dfb7dd0bd15c90581", "detail": 1, "uid": "2936a38dfb7dd0bd15c90581", "detail_info": {"distance": 326, "tag": "\u65c5\u6e38\u666f\u70b9;\u6587\u7269\u53e4\u8ff9", "type": "scope", "detail_url": "http://api.map.baidu.com/place/detail?uid=2936a38dfb7dd0bd15c90581&output=html&source=placeapi_v2", "children": [], "lat": 34.26347285155276, "lng": 108.94426955083863}}, {"name": "\u5927\u76ae\u9662\u6e05\u771f\u5bfa", "location": {"lat": 34.265989134313635, "lng": 108.93530666200016}, "address": "\u897f\u5b89\u5e02\u83b2\u6e56\u533a\u5927\u76ae\u9662108\u53f7", "province": "\u9655\u897f\u7701", "city": "\u897f\u5b89\u5e02", "area": "\u83b2\u6e56\u533a", "street_id": "1c6e8d8c49905079eee4a5d5", "detail": 1, "uid": "1c6e8d8c49905079eee4a5d5", "detail_info": {"distance": 841, "tag": "\u65c5\u6e38\u666f\u70b9;\u5bfa\u5e99", "navi_location": {"lng": 108.9456886062, "lat": 34.270604286765}, "type": "scope", "detail_url": "http://api.map.baidu.com/place/detail?uid=1c6e8d8c49905079eee4a5d5&output=html&source=placeapi_v2", "overall_rating": "3.7", "comment_num": "0", "children": [], "lat": 34.265989134313635, "lng": 108.93530666200016}}, {"name": "\u79e6\u4e4b\u97f5\u76ae\u5f71\u620f\u8868\u6f14", "location": {"lat": 34.26366574414283, "lng": 108.93883943615302}, "address": "\u9655\u897f\u7701\u897f\u5b89\u5e02\u83b2\u6e56\u533a\u5317\u9662\u95e8140\u53f7\u8d3e\u4e09\u5305\u5b50\u659c\u5bf9\u9762", "province": "\u9655\u897f\u7701", "city": "\u897f\u5b89\u5e02", "area": "\u83b2\u6e56\u533a", "street_id": "ba0e6a66d6edffc3a11de97e", "telephone": "15319739205", "detail": 1, "uid": "ba0e6a66d6edffc3a11de97e", "detail_info": {"distance": 431, "tag": "\u4f11\u95f2\u5a31\u4e50;\u5267\u9662", "type": "life", "detail_url": "http://api.map.baidu.com/place/detail?uid=ba0e6a66d6edffc3a11de97e&output=html&source=placeapi_v2", "price": "20", "overall_rating": "4.6", "image_num": "41", "comment_num": "35", "children": [], "lat": 34.26366574414283, "lng": 108.93883943615302}}, {"name": "\u897f\u5b89\u57ce\u5899-\u540a\u6865", "location": {"lat": 34.25209799846436, "lng": 108.94235319081788}, "address": "\u897f\u5b89\u5e02\u7891\u6797\u533a\u73af\u57ce\u5357\u8def\u897f\u5b89\u57ce\u5899(\u73af\u57ce\u5357\u8def)\u5185", "province": "\u9655\u897f\u7701", "city": "\u897f\u5b89\u5e02", "area": "\u7891\u6797\u533a", "street_id": "4662287f678e248a601c6732", "detail": 1, "uid": "4662287f678e248a601c6732", "detail_info": {"distance": 993, "tag": "\u65c5\u6e38\u666f\u70b9;\u666f\u70b9", "type": "scope", "detail_url": "http://api.map.baidu.com/place/detail?uid=4662287f678e248a601c6732&output=html&source=placeapi_v2", "overall_rating": "5", "image_num": "5", "comment_num": "4", "children": [], "lat": 34.25209799846436, "lng": 108.94235319081788}}, {"name": "\u897f\u5b89\u5e02\u9ad8\u5bb6\u5927\u9662\u53e4\u5178\u670d\u9970\u535a\u7269\u9986", "location": {"lat": 34.26446880022241, "lng": 108.93896632392018}, "address": "\u9655\u897f\u7701\u897f\u5b89\u5e02\u83b2\u6e56\u533a\u5317\u9662\u95e8144\u53f7", "province": "\u9655\u897f\u7701", "city": "\u897f\u5b89\u5e02", "area": "\u83b2\u6e56\u533a", "street_id": "667546a46b5c6b44b54f54a5", "telephone": "13571836025", "detail": 1, "uid": "667546a46b5c6b44b54f54a5", "detail_info": {"distance": 488, "tag": "\u65c5\u6e38\u666f\u70b9;\u535a\u7269\u9986", "type": "scope", "detail_url": "http://api.map.baidu.com/place/detail?uid=667546a46b5c6b44b54f54a5&output=html&source=placeapi_v2", "overall_rating": "4", "comment_num": "2", "children": [], "lat": 34.26446880022241, "lng": 108.93896632392018}}, {"name": "\u897f\u5b89\u5e02\u57fa\u7763\u6559\u9752\u5e74\u4f1a", "location": {"lat": 34.26218927887304, "lng": 108.94766433648371}, "address": "\u9655\u897f\u7701\u897f\u5b89\u5e02\u65b0\u57ce\u533a\u4e1c\u5927\u8857565\u53f7", "province": "\u9655\u897f\u7701", "city": "\u897f\u5b89\u5e02", "area": "\u65b0\u57ce\u533a", "street_id": "32e1d8edfc903c4b0bccdd0e", "telephone": "(029)87275830", "detail": 1, "uid": "32e1d8edfc903c4b0bccdd0e", "detail_info": {"distance": 507, "tag": "\u65c5\u6e38\u666f\u70b9;\u6559\u5802", "navi_location": {"lng": 108.95895228378, "lat": 34.266707523057}, "type": "scope", "detail_url": "http://api.map.baidu.com/place/detail?uid=32e1d8edfc903c4b0bccdd0e&output=html&source=placeapi_v2", "image_num": "3", "children": [], "lat": 34.26218927887304, "lng": 108.94766433648371}}, {"name": "\u897f\u5b89\u5c0f\u76ae\u9662\u6e05\u771f\u5317\u5927\u5bfa", "location": {"lat": 34.267038872086395, "lng": 108.93717801703082}, "address": "\u897f\u5b89\u5e02\u83b2\u6e56\u533a\u5c0f\u76ae\u966231\u53f7", "province": "\u9655\u897f\u7701", "city": "\u897f\u5b89\u5e02", "area": "\u83b2\u6e56\u533a", "street_id": "35debf29cf9ce444a6da3906", "detail": 1, "uid": "35debf29cf9ce444a6da3906", "detail_info": {"distance": 812, "tag": "\u65c5\u6e38\u666f\u70b9;\u5bfa\u5e99", "navi_location": {"lng": 108.94845390676, "lat": 34.271862654184}, "type": "scope", "detail_url": "http://api.map.baidu.com/place/detail?uid=35debf29cf9ce444a6da3906&output=html&source=placeapi_v2", "overall_rating": "4.4", "comment_num": "27", "children": [], "lat": 34.267038872086395, "lng": 108.93717801703082}}, {"name": "\u6c38\u5b81\u897f\u82d1", "location": {"lat": 34.253152297783956, "lng": 108.93865482405342}, "address": "\u897f\u5b89\u5e02\u7891\u6797\u533a\u5357\u9662\u95e8\u8857\u9053\u73af\u57ce\u5357\u8def\u73af\u57ce\u516c\u56ed", "province": "\u9655\u897f\u7701", "city": "\u897f\u5b89\u5e02", "area": "\u7891\u6797\u533a", "street_id": "30a8e38e4676a49eb320a8ee", "detail": 1, "uid": "30a8e38e4676a49eb320a8ee", "detail_info": {"distance": 944, "tag": "\u65c5\u6e38\u666f\u70b9;\u516c\u56ed", "navi_location": {"lng": 108.95047201297, "lat": 34.256957928544}, "type": "scope", "detail_url": "http://api.map.baidu.com/place/detail?uid=30a8e38e4676a49eb320a8ee&output=html&source=placeapi_v2", "overall_rating": "4.7", "comment_num": "24", "children": [], "lat": 34.253152297783956, "lng": 108.93865482405342}}, {"name": "\u897f\u5b89\u4e8e\u53f3\u4efb\u6545\u5c45\u7eaa\u5ff5\u9986", "location": {"lat": 34.25420181125993, "lng": 108.94433620518143}, "address": "\u9655\u897f\u7701\u897f\u5b89\u5e02\u7891\u6797\u533a\u4e66\u9662\u95e852\u53f7", "province": "\u9655\u897f\u7701", "city": "\u897f\u5b89\u5e02", "area": "\u7891\u6797\u533a", "street_id": "edd64ce124b41b883ee231aa", "telephone": "(029)87273903", "detail": 1, "uid": "edd64ce124b41b883ee231aa", "detail_info": {"distance": 779, "tag": "\u65c5\u6e38\u666f\u70b9;\u535a\u7269\u9986", "navi_location": {"lng": 108.95521714833, "lat": 34.258316649142}, "type": "scope", "detail_url": "http://api.map.baidu.com/place/detail?uid=edd64ce124b41b883ee231aa&output=html&source=placeapi_v2", "overall_rating": "4.2", "comment_num": "71", "children": [], "lat": 34.25420181125993, "lng": 108.94433620518143}}, {"name": "\u9f13\u697c\u535a\u7269\u9986", "location": {"lat": 34.26180399572237, "lng": 108.93917014645702}, "address": "\u5317\u9662\u95e874\u53f7", "province": "\u9655\u897f\u7701", "city": "\u897f\u5b89\u5e02", "area": "\u83b2\u6e56\u533a", "detail": 1, "uid": "15dbc772e485ff75fea778cf", "detail_info": {"distance": 302, "tag": "\u65c5\u6e38\u666f\u70b9;\u535a\u7269\u9986", "type": "scope", "detail_url": "http://api.map.baidu.com/place/detail?uid=15dbc772e485ff75fea778cf&output=html&source=placeapi_v2", "overall_rating": "0", "comment_num": "1", "children": [], "lat": 34.26180399572237, "lng": 108.93917014645702}}, {"name": "\u897f\u5b89\u7891\u6797\u535a\u7269\u9986-\u7b2c\u4e94\u5ba4", "location": {"lat": 34.25640087978538, "lng": 108.94787383661196}, "address": "\u897f\u5b89\u5e02\u7891\u6797\u533a\u4e09\u5b66\u885715\u53f7(\u8fd1\u4e66\u9662\u95e8)\u897f\u5b89\u7891\u6797\u535a\u7269\u9986\u5185", "province": "\u9655\u897f\u7701", "city": "\u897f\u5b89\u5e02", "area": "\u7891\u6797\u533a", "street_id": "a98f4e372d14e84d2fe67b10", "detail": 1, "uid": "a98f4e372d14e84d2fe67b10", "detail_info": {"distance": 719, "tag": "\u65c5\u6e38\u666f\u70b9;\u666f\u70b9", "navi_location": {"lng": 108.95832874298, "lat": 34.260777758574}, "type": "scope", "detail_url": "http://api.map.baidu.com/place/detail?uid=a98f4e372d14e84d2fe67b10&output=html&source=placeapi_v2", "overall_rating": "5", "comment_num": "7", "children": [], "lat": 34.25640087978538, "lng": 108.94787383661196}}, {"name": "\u65e0\u76d6\u5802", "location": {"lat": 34.25369345013865, "lng": 108.94685353062056}, "address": "\u987a\u57ce\u5357\u8def\u4e2d\u6bb51\u53f7", "province": "\u9655\u897f\u7701", "city": "\u897f\u5b89\u5e02", "area": "\u7891\u6797\u533a", "street_id": "de84f650bc69e9057f29bd2a", "detail": 1, "uid": "de84f650bc69e9057f29bd2a", "detail_info": {"distance": 910, "tag": "\u65c5\u6e38\u666f\u70b9", "type": "scope", "detail_url": "http://api.map.baidu.com/place/detail?uid=de84f650bc69e9057f29bd2a&output=html&source=placeapi_v2", "children": [], "lat": 34.25369345013865, "lng": 108.94685353062056}}, {"name": "\u7891\u529e\u5efa\u6ca1", "location": {"lat": 34.25750402578829, "lng": 108.94335909415261}, "address": "\u897f\u5b89\u5e02\u7891\u6797\u533a\u4e1c\u6728\u5934\u5e02\u897f\u5b89\u767e\u8d27\u5927\u53a6\u9152\u5e97", "province": "\u9655\u897f\u7701", "city": "\u897f\u5b89\u5e02", "area": "\u7891\u6797\u533a", "street_id": "9646d21eda523a5dc9291580", "detail": 1, "uid": "9646d21eda523a5dc9291580", "detail_info": {"distance": 402, "tag": "\u65c5\u6e38\u666f\u70b9;\u98ce\u666f\u533a", "type": "scope", "detail_url": "http://api.map.baidu.com/place/detail?uid=9646d21eda523a5dc9291580&output=html&source=placeapi_v2", "image_num": "1", "children": [], "lat": 34.25750402578829, "lng": 108.94335909415261}}, {"name": "\u6587\u5e99", "location": {"lat": 34.25410191169823, "lng": 108.94812453703767}, "address": "\u897f\u5b89\u5e02\u7891\u6797\u533a\u4e09\u5b66\u885715\u53f7(\u8fd1\u4e66\u9662\u95e8)\u897f\u5b89\u7891\u6797\u535a\u7269\u9986\u5185", "province": "\u9655\u897f\u7701", "city": "\u897f\u5b89\u5e02", "area": "\u7891\u6797\u533a", "street_id": "d5945e454ed5e11140d63e6d", "telephone": "(029)87210764", "detail": 1, "uid": "d5945e454ed5e11140d63e6d", "detail_info": {"distance": 931, "tag": "\u65c5\u6e38\u666f\u70b9;\u5bfa\u5e99", "navi_location": {"lng": 108.95971202028, "lat": 34.258571353898}, "type": "scope", "detail_url": "http://api.map.baidu.com/place/detail?uid=d5945e454ed5e11140d63e6d&output=html&source=placeapi_v2", "overall_rating": "4.2", "image_num": "13", "comment_num": "4", "children": [], "lat": 34.25410191169823, "lng": 108.94812453703767}}, {"name": "\u79e6\u98ce\u9662\u6587\u5316\u8857", "location": {"lat": 34.25446106736331, "lng": 108.9452122004143}, "address": "\u897f\u5b89\u5e02\u7891\u6797\u533a\u4e66\u9662\u95e824\u53f7", "province": "\u9655\u897f\u7701", "city": "\u897f\u5b89\u5e02", "area": "\u7891\u6797\u533a", "street_id": "0523a1414e20701db23c810c", "detail": 1, "uid": "0523a1414e20701db23c810c", "detail_info": {"distance": 773, "tag": "\u8d2d\u7269;\u5546\u94fa", "type": "scope", "detail_url": "http://api.map.baidu.com/place/detail?uid=0523a1414e20701db23c810c&output=html&source=placeapi_v2", "overall_rating": "1.0", "comment_num": "13", "children": [], "lat": 34.25446106736331, "lng": 108.9452122004143}}, {"name": "\u79a7\u9619", "location": {"lat": 34.25778609955313, "lng": 108.93966405131441}, "address": "\u897f\u5b89\u5e02\u7891\u6797\u533a\u897f\u6728\u5934\u5e02\u7701\u51fa\u7248\u793e\u5c0f\u533a", "province": "\u9655\u897f\u7701", "city": "\u897f\u5b89\u5e02", "area": "\u7891\u6797\u533a", "detail": 1, "uid": "b701378829120a108f1a8933", "detail_info": {"distance": 440, "tag": "\u65c5\u6e38\u666f\u70b9;\u98ce\u666f\u533a", "type": "scope", "detail_url": "http://api.map.baidu.com/place/detail?uid=b701378829120a108f1a8933&output=html&source=placeapi_v2", "image_num": "1", "children": [], "lat": 34.25778609955313, "lng": 108.93966405131441}}, {"name": "\u5b54\u5e99", "location": {"lat": 34.25381215871654, "lng": 108.94821617643179}, "address": "\u897f\u5b89\u5e02\u7891\u6797\u533a\u4e09\u5b66\u885715\u53f7(\u8fd1\u4e66\u9662\u95e8)\u897f\u5b89\u7891\u6797\u535a\u7269\u9986\u5185", "province": "\u9655\u897f\u7701", "city": "\u897f\u5b89\u5e02", "area": "\u7891\u6797\u533a", "street_id": "1aba1249fd6d4aa4f33cba29", "telephone": "(029)87210764", "detail": 1, "uid": "1aba1249fd6d4aa4f33cba29", "detail_info": {"distance": 962, "tag": "\u65c5\u6e38\u666f\u70b9;\u5bfa\u5e99", "type": "scope", "detail_url": "http://api.map.baidu.com/place/detail?uid=1aba1249fd6d4aa4f33cba29&output=html&source=placeapi_v2", "overall_rating": "0", "image_num": "1", "comment_num": "0", "children": [], "lat": 34.25381215871654, "lng": 108.94821617643179}}, {"name": "\u897f\u5b89\u4e66\u9662\u95e8\u53e4\u73a9\u827a\u672f\u57ce", "location": {"lat": 34.254207874823884, "lng": 108.94589765479171}, "address": "\u897f\u5b89\u5e02\u7891\u6797\u533a\u4e66\u9662\u95e88\u53f7", "province": "\u9655\u897f\u7701", "city": "\u897f\u5b89\u5e02", "area": "\u7891\u6797\u533a", "street_id": "631c415725dc957831f71ddc", "telephone": "13772044015", "detail": 1, "uid": "631c415725dc957831f71ddc", "detail_info": {"distance": 822, "tag": "\u8d2d\u7269;\u5546\u94fa", "navi_location": {"lng": 108.95728166101, "lat": 34.258976474817}, "type": "scope", "detail_url": "http://api.map.baidu.com/place/detail?uid=631c415725dc957831f71ddc&output=html&source=placeapi_v2", "comment_num": "68", "children": [], "lat": 34.254207874823884, "lng": 108.94589765479171}}, {"name": "\u77f3\u53f0\u5b5d\u7ecf", "location": {"lat": 34.25571701343232, "lng": 108.94809596684304}, "address": "\u897f\u5b89\u5e02\u7891\u6797\u533a\u4e09\u5b66\u885715\u53f7(\u8fd1\u4e66\u9662\u95e8)\u897f\u5b89\u7891\u6797\u535a\u7269\u9986\u5185", "province": "\u9655\u897f\u7701", "city": "\u897f\u5b89\u5e02", "area": "\u7891\u6797\u533a", "street_id": "4345e5594ea4f544adcb661d", "telephone": "(029)87210764", "detail": 1, "uid": "4345e5594ea4f544adcb661d", "detail_info": {"distance": 788, "tag": "\u65c5\u6e38\u666f\u70b9;\u666f\u70b9", "type": "scope", "detail_url": "http://api.map.baidu.com/place/detail?uid=4345e5594ea4f544adcb661d&output=html&source=placeapi_v2", "overall_rating": "5", "comment_num": "2", "children": [], "lat": 34.25571701343232, "lng": 108.94809596684304}}, {"name": "\u674e\u5bff\u5893\u95e8", "location": {"lat": 34.255582714967524, "lng": 108.94734169532305}, "address": "\u897f\u5b89\u5e02\u7891\u6797\u533a\u6587\u660c\u95e8\u5185\u4e09\u5b66\u885715\u53f7\u897f\u5b89\u7891\u6797\u535a\u7269\u9986F1\u5c42", "province": "\u9655\u897f\u7701", "city": "\u897f\u5b89\u5e02", "area": "\u7891\u6797\u533a", "detail": 1, "uid": "a9d4cb73dcb88fc07dc876a7", "detail_info": {"distance": 756, "tag": "\u65c5\u6e38\u666f\u70b9;\u666f\u70b9", "type": "scope", "detail_url": "http://api.map.baidu.com/place/detail?uid=a9d4cb73dcb88fc07dc876a7&output=html&source=placeapi_v2", "children": [], "lat": 34.255582714967524, "lng": 108.94734169532305}}, {"name": "\u897f\u5b89\u7891\u6797\u535a\u7269\u9986-\u7b2c\u4e8c\u5ba4", "location": {"lat": 34.25605975108675, "lng": 108.9481232343048}, "address": "\u897f\u5b89\u5e02\u7891\u6797\u533a\u4e09\u5b66\u885715\u53f7(\u8fd1\u4e66\u9662\u95e8)\u897f\u5b89\u7891\u6797\u535a\u7269\u9986\u5185", "province": "\u9655\u897f\u7701", "city": "\u897f\u5b89\u5e02", "area": "\u7891\u6797\u533a", "street_id": "a4f945f7d0eab95fbea240f4", "detail": 1, "uid": "a4f945f7d0eab95fbea240f4", "detail_info": {"distance": 762, "tag": "\u65c5\u6e38\u666f\u70b9;\u666f\u70b9", "navi_location": {"lng": 108.95860066994, "lat": 34.260237803314}, "type": "scope", "detail_url": "http://api.map.baidu.com/place/detail?uid=a4f945f7d0eab95fbea240f4&output=html&source=placeapi_v2", "overall_rating": "5", "comment_num": "1", "children": [], "lat": 34.25605975108675, "lng": 108.9481232343048}}, {"name": "\u6708\u57ce\u535a\u7269\u9986", "location": {"lat": 34.25234973033336, "lng": 108.94268851471242}, "address": "\u897f\u5b89\u5e02\u7891\u6797\u533a\u5357\u95e8\u76d8\u9053\u897f\u5b89\u57ce\u5899\u5357\u95e8\u4e1c\u4fa7\u7ea640\u7c73", "province": "\u9655\u897f\u7701", "city": "\u897f\u5b89\u5e02", "area": "\u7891\u6797\u533a", "detail": 1, "uid": "158fca0af25c632d441a32a0", "detail_info": {"distance": 965, "tag": "\u65c5\u6e38\u666f\u70b9;\u666f\u70b9", "type": "scope", "detail_url": "http://api.map.baidu.com/place/detail?uid=158fca0af25c632d441a32a0&output=html&source=placeapi_v2", "children": [], "lat": 34.25234973033336, "lng": 108.94268851471242}}, {"name": "\u626d\u86cb\u673a(\u65b0\u4e16\u754c\u767e\u8d27\u5e97)", "location": {"lat": 34.263902063560934, "lng": 108.94143416449134}, "address": "\u897f\u5b89\u5e02\u83b2\u6e56\u533a\u5317\u5927\u885788\u53f7\u65b0\u4e16\u754c\u767e\u8d27F3", "province": "\u9655\u897f\u7701", "city": "\u897f\u5b89\u5e02", "area": "\u83b2\u6e56\u533a", "detail": 1, "uid": "1e798a1bdc139f1ac27da206", "detail_info": {"distance": 328, "tag": "\u65c5\u6e38\u666f\u70b9;\u6e38\u4e50\u56ed", "indoor_floor": "F3", "type": "scope", "detail_url": "http://api.map.baidu.com/place/detail?uid=1e798a1bdc139f1ac27da206&output=html&source=placeapi_v2", "children": [], "lat": 34.263902063560934, "lng": 108.94143416449134}}, {"name": "\u621f\u95e8", "location": {"lat": 34.25468061623425, "lng": 108.94815299592476}, "address": "\u897f\u5b89\u5e02\u7891\u6797\u533a\u4e09\u5b66\u885715\u53f7(\u8fd1\u4e66\u9662\u95e8)\u897f\u5b89\u7891\u6797\u535a\u7269\u9986\u5185", "province": "\u9655\u897f\u7701", "city": "\u897f\u5b89\u5e02", "area": "\u7891\u6797\u533a", "street_id": "109ea4481788be362b11d1ac", "detail": 1, "uid": "109ea4481788be362b11d1ac", "detail_info": {"distance": 880, "tag": "\u65c5\u6e38\u666f\u70b9;\u666f\u70b9", "navi_location": {"lng": 108.95979512072, "lat": 34.259373611554}, "type": "scope", "detail_url": "http://api.map.baidu.com/place/detail?uid=109ea4481788be362b11d1ac&output=html&source=placeapi_v2", "overall_rating": "5", "comment_num": "2", "children": [], "lat": 34.25468061623425, "lng": 108.94815299592476}}, {"name": "\u53e4\u7f18\u6d1e", "location": {"lat": 34.26467321038464, "lng": 108.93660093365602}, "address": "\u9655\u897f\u7701\u897f\u5b89\u5e02\u83b2\u6e56\u533a\u5317\u9662\u95e8\u8857\u9053\u897f\u7f8a\u5e02\u885756\u53f7", "province": "\u9655\u897f\u7701", "city": "\u897f\u5b89\u5e02", "area": "\u83b2\u6e56\u533a", "street_id": "cfc6f27ba95785395fd4fec3", "detail": 1, "uid": "cfc6f27ba95785395fd4fec3", "detail_info": {"distance": 659, "tag": "\u65c5\u6e38\u666f\u70b9;\u98ce\u666f\u533a", "type": "scope", "detail_url": "http://api.map.baidu.com/place/detail?uid=cfc6f27ba95785395fd4fec3&output=html&source=placeapi_v2", "children": [], "lat": 34.26467321038464, "lng": 108.93660093365602}}, {"name": "\u654c\u697c", "location": {"lat": 34.253384655920286, "lng": 108.94715300033609}, "address": "\u897f\u5b89\u5e02\u7891\u6797\u533a\u73af\u57ce\u5357\u8def\u897f\u5b89\u57ce\u5899(\u73af\u57ce\u5357\u8def)\u5185", "province": "\u9655\u897f\u7701", "city": "\u897f\u5b89\u5e02", "area": "\u7891\u6797\u533a", "street_id": "fc205a66d022daeddb1318db", "detail": 1, "uid": "fc205a66d022daeddb1318db", "detail_info": {"distance": 953, "tag": "\u65c5\u6e38\u666f\u70b9;\u666f\u70b9", "type": "scope", "detail_url": "http://api.map.baidu.com/place/detail?uid=fc205a66d022daeddb1318db&output=html&source=placeapi_v2", "overall_rating": "5", "comment_num": "2", "children": [], "lat": 34.253384655920286, "lng": 108.94715300033609}}, {"name": "\u5b5d\u7ecf\u4ead", "location": {"lat": 34.25574385698731, "lng": 108.94811396807812}, "address": "\u897f\u5b89\u5e02\u7891\u6797\u533a\u4e09\u5b66\u885715\u53f7(\u8fd1\u4e66\u9662\u95e8)\u897f\u5b89\u7891\u6797\u535a\u7269\u9986\u5185", "province": "\u9655\u897f\u7701", "city": "\u897f\u5b89\u5e02", "area": "\u7891\u6797\u533a", "street_id": "30f6672a2221473d100daad7", "detail": 1, "uid": "30f6672a2221473d100daad7", "detail_info": {"distance": 787, "tag": "\u65c5\u6e38\u666f\u70b9;\u666f\u70b9", "navi_location": {"lng": 108.95860066994, "lat": 34.260237803314}, "type": "scope", "detail_url": "http://api.map.baidu.com/place/detail?uid=30f6672a2221473d100daad7&output=html&source=placeapi_v2", "overall_rating": "5", "comment_num": "1", "children": [], "lat": 34.25574385698731, "lng": 108.94811396807812}}, {"name": "\u9ad8\u57f9\u652f\u65e7\u5c45", "location": {"lat": 34.254849119409805, "lng": 108.95001627060321}, "address": "\u897f\u5b89\u5e02\u7891\u6797\u533a\u5174\u9686\u5df742\u53f7", "province": "\u9655\u897f\u7701", "city": "\u897f\u5b89\u5e02", "area": "\u7891\u6797\u533a", "street_id": "bb5007841b28e26448cc4a32", "detail": 1, "uid": "bb5007841b28e26448cc4a32", "detail_info": {"distance": 979, "tag": "\u65c5\u6e38\u666f\u70b9;\u6587\u7269\u53e4\u8ff9", "type": "scope", "detail_url": "http://api.map.baidu.com/place/detail?uid=bb5007841b28e26448cc4a32&output=html&source=placeapi_v2", "overall_rating": "4.3", "comment_num": "22", "children": [], "lat": 34.254849119409805, "lng": 108.95001627060321}}, {"name": "\u4f20\u5947", "location": {"lat": 34.2568990144911, "lng": 108.9411786201069}, "address": "\u7c89\u5df723\u53f7\u534e\u6da6\u4e07\u5bb6\u4e00\u697c", "province": "\u9655\u897f\u7701", "city": "\u897f\u5b89\u5e02", "area": "\u7891\u6797\u533a", "street_id": "f1c2ef4f8e57dfb740e1924e", "detail": 1, "uid": "f1c2ef4f8e57dfb740e1924e", "detail_info": {"distance": 473, "tag": "\u65c5\u6e38\u666f\u70b9", "type": "scope", "detail_url": "http://api.map.baidu.com/place/detail?uid=f1c2ef4f8e57dfb740e1924e&output=html&source=placeapi_v2", "comment_num": "4", "children": [], "lat": 34.2568990144911, "lng": 108.9411786201069}}, {"name": "\u4e66\u9662\u95e8111", "location": {"lat": 34.25459871073156, "lng": 108.94416756228031}, "address": "\u897f\u5b89\u5e02\u7891\u6797\u533a\u4e66\u9662\u95e8\u5173\u4e2d\u4e66\u82d1", "province": "\u9655\u897f\u7701", "city": "\u897f\u5b89\u5e02", "area": "\u7891\u6797\u533a", "street_id": "eb07dcc8da00896edbeced63", "detail": 1, "uid": "eb07dcc8da00896edbeced63", "detail_info": {"distance": 732, "tag": "\u65c5\u6e38\u666f\u70b9;\u666f\u70b9", "type": "scope", "detail_url": "http://api.map.baidu.com/place/detail?uid=eb07dcc8da00896edbeced63&output=html&source=placeapi_v2", "image_num": "1", "children": [], "lat": 34.25459871073156, "lng": 108.94416756228031}}, {"name": "\u535a\u96c5\u697c", "location": {"lat": 34.25336062021937, "lng": 108.94554512834212}, "address": "\u897f\u5b89\u5e02\u7891\u6797\u533a\u5357\u5927\u8857\u897f\u5b89\u57ce\u5899\u5185", "province": "\u9655\u897f\u7701", "city": "\u897f\u5b89\u5e02", "area": "\u7891\u6797\u533a", "street_id": "437152d0596dff9c3686f4d8", "detail": 1, "uid": "437152d0596dff9c3686f4d8", "detail_info": {"distance": 898, "tag": "\u65c5\u6e38\u666f\u70b9;\u666f\u70b9", "type": "scope", "detail_url": "http://api.map.baidu.com/place/detail?uid=437152d0596dff9c3686f4d8&output=html&source=placeapi_v2", "children": [], "lat": 34.25336062021937, "lng": 108.94554512834212}}, {"name": "\u65ad\u5343\u5b57\u6587", "location": {"lat": 34.25622847991149, "lng": 108.94815334563467}, "address": "\u897f\u5b89\u5e02\u7891\u6797\u533a\u6587\u660c\u95e8\u5185\u4e09\u5b66\u885715\u53f7\u897f\u5b89\u7891\u6797\u535a\u7269\u9986F1\u5c42", "province": "\u9655\u897f\u7701", "city": "\u897f\u5b89\u5e02", "area": "\u7891\u6797\u533a", "street_id": "10163822249c807bd6b74e5f", "detail": 1, "uid": "10163822249c807bd6b74e5f", "detail_info": {"distance": 751, "tag": "\u65c5\u6e38\u666f\u70b9;\u666f\u70b9", "type": "scope", "detail_url": "http://api.map.baidu.com/place/detail?uid=10163822249c807bd6b74e5f&output=html&source=placeapi_v2", "children": [], "lat": 34.25622847991149, "lng": 108.94815334563467}}, {"name": "\u6708\u5c71\u53f0", "location": {"lat": 34.25430635141141, "lng": 108.94411431686441}, "address": "\u897f\u5b89\u5e02\u7891\u6797\u533a\u4e66\u9662\u95e8\u9655\u897f\u7701\u897f\u5b89\u5e08\u8303\u9644\u5c5e\u5c0f\u5b66\u5357\u4fa7\u7ea630\u7c73", "province": "\u9655\u897f\u7701", "city": "\u897f\u5b89\u5e02", "area": "\u7891\u6797\u533a", "street_id": "70617b3cd35e68fceee4a575", "detail": 1, "uid": "70617b3cd35e68fceee4a575", "detail_info": {"distance": 763, "tag": "\u65c5\u6e38\u666f\u70b9;\u666f\u70b9", "type": "scope", "detail_url": "http://api.map.baidu.com/place/detail?uid=70617b3cd35e68fceee4a575&output=html&source=placeapi_v2", "children": [], "lat": 34.25430635141141, "lng": 108.94411431686441}}, {"name": "\u897f\u5b89\u77f3\u523b\u827a\u672f\u5ba4", "location": {"lat": 34.25578129442389, "lng": 108.94738582445548}, "address": "\u897f\u5b89\u5e02\u7891\u6797\u533a\u4e09\u5b66\u885715\u53f7(\u8fd1\u4e66\u9662\u95e8)\u897f\u5b89\u7891\u6797\u535a\u7269\u9986\u5185", "province": "\u9655\u897f\u7701", "city": "\u897f\u5b89\u5e02", "area": "\u7891\u6797\u533a", "street_id": "aae302ce52478bf7dbd89140", "detail": 1, "uid": "aae302ce52478bf7dbd89140", "detail_info": {"distance": 741, "tag": "\u65c5\u6e38\u666f\u70b9;\u6587\u7269\u53e4\u8ff9", "type": "scope", "detail_url": "http://api.map.baidu.com/place/detail?uid=aae302ce52478bf7dbd89140&output=html&source=placeapi_v2", "overall_rating": "5", "image_num": "2", "comment_num": "1", "children": [], "lat": 34.25578129442389, "lng": 108.94738582445548}}, {"name": "\u4e2d\u56fd\u9655\u897f\u7701\u897f\u5b89\u5e02\u65b0\u57ce\u533a\u7687\u57ce\u897f\u8def6\u53f7\u516c\u56ed", "location": {"lat": 34.267229836909756, "lng": 108.94649195426774}, "address": "\u9655\u897f\u7701\u897f\u5b89\u5e02\u65b0\u57ce\u533a\u7687\u57ce\u897f\u8def6\u53f7", "province": "\u9655\u897f\u7701", "city": "\u897f\u5b89\u5e02", "area": "\u65b0\u57ce\u533a", "street_id": "e57db45b10d7e5601811d5fb", "detail": 1, "uid": "e57db45b10d7e5601811d5fb", "detail_info": {"distance": 791, "tag": "\u65c5\u6e38\u666f\u70b9;\u516c\u56ed", "type": "scope", "detail_url": "http://api.map.baidu.com/place/detail?uid=e57db45b10d7e5601811d5fb&output=html&source=placeapi_v2", "children": [], "lat": 34.267229836909756, "lng": 108.94649195426774}}, {"name": "\u897f\u5b89\u7891\u6797\u535a\u7269\u9986-\u7b2c\u56db\u5ba4", "location": {"lat": 34.25642047106128, "lng": 108.94815251660926}, "address": "\u897f\u5b89\u5e02\u7891\u6797\u533a\u4e09\u5b66\u885715\u53f7(\u8fd1\u4e66\u9662\u95e8)\u897f\u5b89\u7891\u6797\u535a\u7269\u9986\u5185", "province": "\u9655\u897f\u7701", "city": "\u897f\u5b89\u5e02", "area": "\u7891\u6797\u533a", "street_id": "1421255e4f6138ea9868b495", "detail": 1, "uid": "1421255e4f6138ea9868b495", "detail_info": {"distance": 736, "tag": "\u65c5\u6e38\u666f\u70b9;\u666f\u70b9", "navi_location": {"lng": 108.95832874298, "lat": 34.260777758574}, "type": "scope", "detail_url": "http://api.map.baidu.com/place/detail?uid=1421255e4f6138ea9868b495&output=html&source=placeapi_v2", "overall_rating": "5", "comment_num": "2", "children": [], "lat": 34.25642047106128, "lng": 108.94815251660926}}, {"name": "\u897f\u5b89\u7891\u6797\u535a\u7269\u9986-\u7b2c\u516d\u5ba4", "location": {"lat": 34.25624088552118, "lng": 108.94787469401935}, "address": "\u897f\u5b89\u5e02\u7891\u6797\u533a\u4e09\u5b66\u885715\u53f7(\u8fd1\u4e66\u9662\u95e8)\u897f\u5b89\u7891\u6797\u535a\u7269\u9986\u5185", "province": "\u9655\u897f\u7701", "city": "\u897f\u5b89\u5e02", "area": "\u7891\u6797\u533a", "street_id": "bcdf18a94b95936fed74f8a3", "detail": 1, "uid": "bcdf18a94b95936fed74f8a3", "detail_info": {"distance": 732, "tag": "\u65c5\u6e38\u666f\u70b9;\u666f\u70b9", "navi_location": {"lng": 108.95832874298, "lat": 34.260777758574}, "type": "scope", "detail_url": "http://api.map.baidu.com/place/detail?uid=bcdf18a94b95936fed74f8a3&output=html&source=placeapi_v2", "overall_rating": "5", "comment_num": "5", "children": [], "lat": 34.25624088552118, "lng": 108.94787469401935}}, {"name": "\u5fb7\u5e94\u4faf\u7891", "location": {"lat": 34.25622631842857, "lng": 108.94805546494041}, "address": "\u897f\u5b89\u5e02\u7891\u6797\u533a\u6587\u660c\u95e8\u5185\u4e09\u5b66\u885715\u53f7\u897f\u5b89\u7891\u6797\u535a\u7269\u9986F1\u5c42", "province": "\u9655\u897f\u7701", "city": "\u897f\u5b89\u5e02", "area": "\u7891\u6797\u533a", "street_id": "e2c182d4b23c60831676435d", "detail": 1, "uid": "e2c182d4b23c60831676435d", "detail_info": {"distance": 744, "tag": "\u65c5\u6e38\u666f\u70b9;\u666f\u70b9", "type": "scope", "detail_url": "http://api.map.baidu.com/place/detail?uid=e2c182d4b23c60831676435d&output=html&source=placeapi_v2", "children": [], "lat": 34.25622631842857, "lng": 108.94805546494041}}, {"name": "\u897f\u5b89\u7891\u6797\u535a\u7269\u9986-\u7b2c\u4e09\u5ba4", "location": {"lat": 34.25624047030872, "lng": 108.94815435496798}, "address": "\u897f\u5b89\u5e02\u7891\u6797\u533a\u4e09\u5b66\u885715\u53f7(\u8fd1\u4e66\u9662\u95e8)\u897f\u5b89\u7891\u6797\u535a\u7269\u9986\u5185", "province": "\u9655\u897f\u7701", "city": "\u897f\u5b89\u5e02", "area": "\u7891\u6797\u533a", "street_id": "a41c1a9bf199c87e8c55ec66", "detail": 1, "uid": "a41c1a9bf199c87e8c55ec66", "detail_info": {"distance": 750, "tag": "\u65c5\u6e38\u666f\u70b9;\u666f\u70b9", "navi_location": {"lng": 108.95832874298, "lat": 34.260777758574}, "type": "scope", "detail_url": "http://api.map.baidu.com/place/detail?uid=a41c1a9bf199c87e8c55ec66&output=html&source=placeapi_v2", "overall_rating": "5", "comment_num": "3", "children": [], "lat": 34.25624047030872, "lng": 108.94815435496798}}, {"name": "\u6881\u5b88\u8c26\u7891", "location": {"lat": 34.25601570389135, "lng": 108.948129188078}, "address": "\u897f\u5b89\u5e02\u7891\u6797\u533a\u6587\u660c\u95e8\u5185\u4e09\u5b66\u885715\u53f7\u897f\u5b89\u7891\u6797\u535a\u7269\u9986F1\u5c42", "province": "\u9655\u897f\u7701", "city": "\u897f\u5b89\u5e02", "area": "\u7891\u6797\u533a", "detail": 1, "uid": "1c3c538b603af21208f5eb4a", "detail_info": {"distance": 766, "tag": "\u65c5\u6e38\u666f\u70b9;\u666f\u70b9", "type": "scope", "detail_url": "http://api.map.baidu.com/place/detail?uid=1c3c538b603af21208f5eb4a&output=html&source=placeapi_v2", "children": [], "lat": 34.25601570389135, "lng": 108.948129188078}}, {"name": "\u897f\u5b89\u5e02\u79d1\u5b66\u6280\u672f\u4ea4\u6d41\u9986", "location": {"lat": 34.2564325563645, "lng": 108.94121523233218}, "address": "\u897f\u5b89\u5e02\u7891\u6797\u533a\u5357\u5927\u8857\u7c89\u5df722\u53f7", "province": "\u9655\u897f\u7701", "city": "\u897f\u5b89\u5e02", "area": "\u7891\u6797\u533a", "street_id": "a3e8341cb78848944afd3f49", "telephone": "(029)87265342", "detail": 1, "uid": "a3e8341cb78848944afd3f49", "detail_info": {"distance": 523, "tag": "\u6559\u80b2\u57f9\u8bad;\u79d1\u6280\u9986", "navi_location": {"lng": 108.95205271357, "lat": 34.261540719722}, "type": "scope", "detail_url": "http://api.map.baidu.com/place/detail?uid=a3e8341cb78848944afd3f49&output=html&source=placeapi_v2", "overall_rating": "0.0", "comment_num": "3", "children": [], "lat": 34.2564325563645, "lng": 108.94121523233218}}, {"name": "\u5174\u5e86\u6c60\u798a\u5bb4\u8bd7", "location": {"lat": 34.256245016453214, "lng": 108.94809043849138}, "address": "\u897f\u5b89\u5e02\u7891\u6797\u533a\u6587\u660c\u95e8\u5185\u4e09\u5b66\u885715\u53f7\u897f\u5b89\u7891\u6797\u535a\u7269\u9986F1\u5c42", "province": "\u9655\u897f\u7701", "city": "\u897f\u5b89\u5e02", "area": "\u7891\u6797\u533a", "street_id": "a5a20abf95d3e123a8f0cdf1", "detail": 1, "uid": "a5a20abf95d3e123a8f0cdf1", "detail_info": {"distance": 745, "tag": "\u65c5\u6e38\u666f\u70b9;\u666f\u70b9", "type": "scope", "detail_url": "http://api.map.baidu.com/place/detail?uid=a5a20abf95d3e123a8f0cdf1&output=html&source=placeapi_v2", "children": [], "lat": 34.256245016453214, "lng": 108.94809043849138}}, {"name": "\u4e5d\u6247\u5c4f", "location": {"lat": 34.2544234099277, "lng": 108.94463534125383}, "address": "\u897f\u5b89\u5e02\u7891\u6797\u533a\u4e66\u9662\u95e8\u897f\u5b89\u6587\u7406\u5b66\u9662(\u4e66\u9662\u6821\u533a)\u5357\u4fa7", "province": "\u9655\u897f\u7701", "city": "\u897f\u5b89\u5e02", "area": "\u7891\u6797\u533a", "telephone": "(029)87370196", "detail": 1, "uid": "c7a979c05e3c9bef85420ec7", "detail_info": {"distance": 761, "tag": "\u65c5\u6e38\u666f\u70b9;\u98ce\u666f\u533a", "type": "scope", "detail_url": "http://api.map.baidu.com/place/detail?uid=c7a979c05e3c9bef85420ec7&output=html&source=placeapi_v2", "image_num": "1", "children": [], "lat": 34.2544234099277, "lng": 108.94463534125383}}, {"name": "\u53e4\u5c71\u6708", "location": {"lat": 34.25427559619508, "lng": 108.94400729678296}, "address": "\u897f\u5b89\u5e02\u7891\u6797\u533a\u4e66\u9662\u95e8\u9655\u897f\u7701\u897f\u5b89\u5e08\u8303\u9644\u5c5e\u5c0f\u5b66\u5357\u4fa7\u7ea630\u7c73", "province": "\u9655\u897f\u7701", "city": "\u897f\u5b89\u5e02", "area": "\u7891\u6797\u533a", "detail": 1, "uid": "24cc27f930144612a1046413", "detail_info": {"distance": 764, "tag": "\u65c5\u6e38\u666f\u70b9;\u98ce\u666f\u533a", "type": "scope", "detail_url": "http://api.map.baidu.com/place/detail?uid=24cc27f930144612a1046413&output=html&source=placeapi_v2", "image_num": "0", "children": [], "lat": 34.25427559619508, "lng": 108.94400729678296}}, {"name": "\u660e\u7f6e\u897f\u5b89\u5e9c", "location": {"lat": 34.25333064353799, "lng": 108.94358649517943}, "address": "\u897f\u5b89\u5e02\u7891\u6797\u533a\u73af\u57ce\u5357\u8def\u897f\u5b89\u57ce\u5899(\u73af\u57ce\u5357\u8def)\u5185", "province": "\u9655\u897f\u7701", "city": "\u897f\u5b89\u5e02", "area": "\u7891\u6797\u533a", "street_id": "b66737b1b187cb0d9122e09b", "detail": 1, "uid": "b66737b1b187cb0d9122e09b", "detail_info": {"distance": 862, "tag": "\u65c5\u6e38\u666f\u70b9;\u666f\u70b9", "type": "scope", "detail_url": "http://api.map.baidu.com/place/detail?uid=b66737b1b187cb0d9122e09b&output=html&source=placeapi_v2", "overall_rating": "5", "image_num": "3", "comment_num": "2", "children": [], "lat": 34.25333064353799, "lng": 108.94358649517943}}, {"name": "\u674e\u548c\u77f3\u68fa", "location": {"lat": 34.2560048513198, "lng": 108.94754285689373}, "address": "\u897f\u5b89\u5e02\u7891\u6797\u533a\u6587\u660c\u95e8\u5185\u4e09\u5b66\u885715\u53f7\u897f\u5b89\u7891\u6797\u535a\u7269\u9986F1\u5c42", "province": "\u9655\u897f\u7701", "city": "\u897f\u5b89\u5e02", "area": "\u7891\u6797\u533a", "detail": 1, "uid": "a9dfa8a89c5ee609210262a4", "detail_info": {"distance": 731, "tag": "\u65c5\u6e38\u666f\u70b9;\u5176\u4ed6", "type": "scope", "detail_url": "http://api.map.baidu.com/place/detail?uid=a9dfa8a89c5ee609210262a4&output=html&source=placeapi_v2", "children": [], "lat": 34.2560048513198, "lng": 108.94754285689373}}, {"name": "\u611f\u65f6\u4f24\u60b2\u8bb0", "location": {"lat": 34.256430546649185, "lng": 108.94826138731831}, "address": "\u897f\u5b89\u5e02\u7891\u6797\u533a\u6587\u660c\u95e8\u5185\u4e09\u5b66\u885715\u53f7\u897f\u5b89\u7891\u6797\u535a\u7269\u9986F1\u5c42", "province": "\u9655\u897f\u7701", "city": "\u897f\u5b89\u5e02", "area": "\u7891\u6797\u533a", "street_id": "d3225108dd22fdb0b75f1e68", "detail": 1, "uid": "d3225108dd22fdb0b75f1e68", "detail_info": {"distance": 742, "tag": "\u65c5\u6e38\u666f\u70b9;\u5176\u4ed6", "type": "scope", "detail_url": "http://api.map.baidu.com/place/detail?uid=d3225108dd22fdb0b75f1e68&output=html&source=placeapi_v2", "children": [], "lat": 34.256430546649185, "lng": 108.94826138731831}}, {"name": "\u592a\u548c\u5143\u6c14\u574a", "location": {"lat": 34.25379295120007, "lng": 108.94812327721961}, "address": "\u897f\u5b89\u5e02\u7891\u6797\u533a\u4e09\u5b66\u885715\u53f7(\u8fd1\u4e66\u9662\u95e8)\u897f\u5b89\u7891\u6797\u535a\u7269\u9986\u5185", "province": "\u9655\u897f\u7701", "city": "\u897f\u5b89\u5e02", "area": "\u7891\u6797\u533a", "street_id": "32f8125fed7e4eb0e5073832", "detail": 1, "uid": "32f8125fed7e4eb0e5073832", "detail_info": {"distance": 959, "tag": "\u65c5\u6e38\u666f\u70b9;\u666f\u70b9", "type": "scope", "detail_url": "http://api.map.baidu.com/place/detail?uid=32f8125fed7e4eb0e5073832&output=html&source=placeapi_v2", "overall_rating": "5", "comment_num": "2", "children": [], "lat": 34.25379295120007, "lng": 108.94812327721961}}, {"name": "\u5317\u5e7f\u6d4e\u8857\u6e05\u771f\u5973\u5bfa", "location": {"lat": 34.2627144143856, "lng": 108.93452507520345}, "address": "\u9655\u897f\u7701\u897f\u5b89\u5e02\u83b2\u6e56\u533a\u5317\u5e7f\u6d4e\u885783\u53f7", "province": "\u9655\u897f\u7701", "city": "\u897f\u5b89\u5e02", "area": "\u83b2\u6e56\u533a", "street_id": "5a2a244c69d896818c1a894c", "telephone": "(029)87272541", "detail": 1, "uid": "5a2a244c69d896818c1a894c", "detail_info": {"distance": 738, "tag": "\u65c5\u6e38\u666f\u70b9;\u5bfa\u5e99", "type": "scope", "detail_url": "http://api.map.baidu.com/place/detail?uid=5a2a244c69d896818c1a894c&output=html&source=placeapi_v2", "overall_rating": "0", "comment_num": "0", "children": [], "lat": 34.2627144143856, "lng": 108.93452507520345}}, {"name": "\u4e2d\u56fd\u6c11\u65cf\u98ce\u60c5\u5c0f\u9547\u5f00\u53d1\u8054\u7edc\u5904", "location": {"lat": 34.25443961792219, "lng": 108.94324838891322}, "address": "\u897f\u5b89\u5e02\u7891\u6797\u533a\u4e66\u9662\u95e8\u897f\u5317\u6c34\u7535\u535a\u6c34\u5546\u52a1\u5927\u53a6\u5357\u4fa7", "province": "\u9655\u897f\u7701", "city": "\u897f\u5b89\u5e02", "area": "\u7891\u6797\u533a", "street_id": "ef67b4f0925fac4d78f796d3", "detail": 1, "uid": "ef67b4f0925fac4d78f796d3", "detail_info": {"distance": 736, "tag": "\u65c5\u6e38\u666f\u70b9;\u666f\u70b9", "navi_location": {"lng": 108.95418455334, "lat": 34.259174194283}, "type": "scope", "detail_url": "http://api.map.baidu.com/place/detail?uid=ef67b4f0925fac4d78f796d3&output=html&source=placeapi_v2", "image_num": "1", "children": [], "lat": 34.25443961792219, "lng": 108.94324838891322}}, {"name": "\u5434\u9053\u5b50\u89c2\u97f3\u50cf", "location": {"lat": 34.25642408595627, "lng": 108.94808060912541}, "address": "\u897f\u5b89\u5e02\u7891\u6797\u533a\u6587\u660c\u95e8\u5185\u4e09\u5b66\u885715\u53f7\u897f\u5b89\u7891\u6797\u535a\u7269\u9986F1\u5c42", "province": "\u9655\u897f\u7701", "city": "\u897f\u5b89\u5e02", "area": "\u7891\u6797\u533a", "detail": 1, "uid": "612cb373c154782eb34c494d", "detail_info": {"distance": 731, "tag": "\u65c5\u6e38\u666f\u70b9;\u666f\u70b9", "type": "scope", "detail_url": "http://api.map.baidu.com/place/detail?uid=612cb373c154782eb34c494d&output=html&source=placeapi_v2", "children": [], "lat": 34.25642408595627, "lng": 108.94808060912541}}, {"name": "\u5b54\u5b50\u50cf", "location": {"lat": 34.25643854610884, "lng": 108.94814354386351}, "address": "\u897f\u5b89\u5e02\u7891\u6797\u533a\u6587\u660c\u95e8\u5185\u4e09\u5b66\u885715\u53f7\u897f\u5b89\u7891\u6797\u535a\u7269\u9986F1\u5c42", "province": "\u9655\u897f\u7701", "city": "\u897f\u5b89\u5e02", "area": "\u7891\u6797\u533a", "street_id": "5370f8b010c1d75c626858a5", "detail": 1, "uid": "5370f8b010c1d75c626858a5", "detail_info": {"distance": 734, "tag": "\u65c5\u6e38\u666f\u70b9;\u666f\u70b9", "type": "scope", "detail_url": "http://api.map.baidu.com/place/detail?uid=5370f8b010c1d75c626858a5&output=html&source=placeapi_v2", "children": [], "lat": 34.25643854610884, "lng": 108.94814354386351}}, {"name": "\u5fa1\u53f2\u53f0\u7cbe\u820d\u7891", "location": {"lat": 34.25600085899729, "lng": 108.9481111973709}, "address": "\u897f\u5b89\u5e02\u7891\u6797\u533a\u6587\u660c\u95e8\u5185\u4e09\u5b66\u885715\u53f7\u897f\u5b89\u7891\u6797\u535a\u7269\u9986F1\u5c42", "province": "\u9655\u897f\u7701", "city": "\u897f\u5b89\u5e02", "area": "\u7891\u6797\u533a", "detail": 1, "uid": "a5381217349246c1f5c59c51", "detail_info": {"distance": 766, "tag": "\u65c5\u6e38\u666f\u70b9;\u666f\u70b9", "type": "scope", "detail_url": "http://api.map.baidu.com/place/detail?uid=a5381217349246c1f5c59c51&output=html&source=placeapi_v2", "children": [], "lat": 34.25600085899729, "lng": 108.9481111973709}}, {"name": "\u5927\u89c2\u5723\u4f5c\u4e4b\u7891", "location": {"lat": 34.25621342311339, "lng": 108.94827817350124}, "address": "\u897f\u5b89\u5e02\u7891\u6797\u533a\u6587\u660c\u95e8\u5185\u4e09\u5b66\u885715\u53f7\u897f\u5b89\u7891\u6797\u535a\u7269\u9986F1\u5c42", "province": "\u9655\u897f\u7701", "city": "\u897f\u5b89\u5e02", "area": "\u7891\u6797\u533a", "street_id": "d6b153ced7dddd3ead31e5ec", "detail": 1, "uid": "d6b153ced7dddd3ead31e5ec", "detail_info": {"distance": 760, "tag": "\u65c5\u6e38\u666f\u70b9;\u666f\u70b9", "type": "scope", "detail_url": "http://api.map.baidu.com/place/detail?uid=d6b153ced7dddd3ead31e5ec&output=html&source=placeapi_v2", "children": [], "lat": 34.25621342311339, "lng": 108.94827817350124}}, {"name": "\u81e7\u6000\u606a\u7891", "location": {"lat": 34.25621576250284, "lng": 108.9481203755522}, "address": "\u897f\u5b89\u5e02\u7891\u6797\u533a\u6587\u660c\u95e8\u5185\u4e09\u5b66\u885715\u53f7\u897f\u5b89\u7891\u6797\u535a\u7269\u9986F1\u5c42", "province": "\u9655\u897f\u7701", "city": "\u897f\u5b89\u5e02", "area": "\u7891\u6797\u533a", "street_id": "aa2cb61e2e48f6f835b06c8d", "detail": 1, "uid": "aa2cb61e2e48f6f835b06c8d", "detail_info": {"distance": 749, "tag": "\u65c5\u6e38\u666f\u70b9;\u666f\u70b9", "type": "scope", "detail_url": "http://api.map.baidu.com/place/detail?uid=aa2cb61e2e48f6f835b06c8d&output=html&source=placeapi_v2", "children": [], "lat": 34.25621576250284, "lng": 108.9481203755522}}, {"name": "\u5e73\u5229\u6559\u6848\u7891", "location": {"lat": 34.25639642338179, "lng": 108.94827633780946}, "address": "\u897f\u5b89\u5e02\u7891\u6797\u533a\u6587\u660c\u95e8\u5185\u4e09\u5b66\u885715\u53f7\u897f\u5b89\u7891\u6797\u535a\u7269\u9986F1\u5c42", "province": "\u9655\u897f\u7701", "city": "\u897f\u5b89\u5e02", "area": "\u7891\u6797\u533a", "street_id": "9747b0aae5ffefebdbd89144", "detail": 1, "uid": "9747b0aae5ffefebdbd89144", "detail_info": {"distance": 746, "tag": "\u65c5\u6e38\u666f\u70b9;\u666f\u70b9", "type": "scope", "detail_url": "http://api.map.baidu.com/place/detail?uid=9747b0aae5ffefebdbd89144&output=html&source=placeapi_v2", "children": [], "lat": 34.25639642338179, "lng": 108.94827633780946}}, {"name": "\u4e09\u85cf\u5723\u6559\u5e8f\u7891", "location": {"lat": 34.256001881075825, "lng": 108.94822605377412}, "address": "\u897f\u5b89\u5e02\u7891\u6797\u533a\u6587\u660c\u95e8\u5185\u4e09\u5b66\u885715\u53f7\u897f\u5b89\u7891\u6797\u535a\u7269\u9986F1\u5c42", "province": "\u9655\u897f\u7701", "city": "\u897f\u5b89\u5e02", "area": "\u7891\u6797\u533a", "street_id": "66b98e5aa814225988db73a4", "detail": 1, "uid": "66b98e5aa814225988db73a4", "detail_info": {"distance": 773, "tag": "\u65c5\u6e38\u666f\u70b9;\u666f\u70b9", "type": "scope", "detail_url": "http://api.map.baidu.com/place/detail?uid=66b98e5aa814225988db73a4&output=html&source=placeapi_v2", "children": [], "lat": 34.256001881075825, "lng": 108.94822605377412}}, {"name": "\u6625\u79cb\u5de6\u6c0f\u4f20", "location": {"lat": 34.255893766289574, "lng": 108.94812308836757}, "address": "\u897f\u5b89\u5e02\u7891\u6797\u533a\u6587\u660c\u95e8\u5185\u4e09\u5b66\u885715\u53f7\u897f\u5b89\u7891\u6797\u535a\u7269\u9986F1\u5c42", "province": "\u9655\u897f\u7701", "city": "\u897f\u5b89\u5e02", "area": "\u7891\u6797\u533a", "detail": 1, "uid": "8abd16e3e53ed10cb817e74f", "detail_info": {"distance": 775, "tag": "\u65c5\u6e38\u666f\u70b9;\u5176\u4ed6", "type": "scope", "detail_url": "http://api.map.baidu.com/place/detail?uid=8abd16e3e53ed10cb817e74f&output=html&source=placeapi_v2", "children": [], "lat": 34.255893766289574, "lng": 108.94812308836757}}, {"name": "\u6447\u6447\u8f66", "location": {"lat": 34.265216131442486, "lng": 108.9417225262948}, "address": "\u897f\u5b89\u5e02\u83b2\u6e56\u533a\u5317\u5927\u885788\u53f7\u65b0\u4e16\u754c\u767e\u8d27M", "province": "\u9655\u897f\u7701", "city": "\u897f\u5b89\u5e02", "area": "\u83b2\u6e56\u533a", "street_id": "14b5cebd1515d9588733041f", "detail": 1, "uid": "14b5cebd1515d9588733041f", "detail_info": {"distance": 467, "tag": "\u65c5\u6e38\u666f\u70b9;\u6e38\u4e50\u56ed", "indoor_floor": "M", "type": "scope", "detail_url": "http://api.map.baidu.com/place/detail?uid=14b5cebd1515d9588733041f&output=html&source=placeapi_v2", "children": [], "lat": 34.265216131442486, "lng": 108.9417225262948}}, {"name": "\u9655\u897f\u5143\u9633\u6587\u5316\u535a\u7269\u9986", "location": {"lat": 34.25372653352707, "lng": 108.9457413350854}, "address": "\u897f\u5b89\u5e02\u7891\u6797\u533a\u987a\u57ce\u5357\u8def\u4e2d\u6bb533\u53f7", "province": "\u9655\u897f\u7701", "city": "\u897f\u5b89\u5e02", "area": "\u7891\u6797\u533a", "street_id": "81d02994b8edfc58b64f54dc", "detail": 1, "uid": "81d02994b8edfc58b64f54dc", "detail_info": {"distance": 866, "tag": "\u65c5\u6e38\u666f\u70b9;\u535a\u7269\u9986", "navi_location": {"lng": 108.95684261329, "lat": 34.258328087867}, "type": "scope", "detail_url": "http://api.map.baidu.com/place/detail?uid=81d02994b8edfc58b64f54dc&output=html&source=placeapi_v2", "overall_rating": "0.0", "children": [], "lat": 34.25372653352707, "lng": 108.9457413350854}}, {"name": "\u8d22\u795e\u6bbf", "location": {"lat": 34.2624598179609, "lng": 108.93269259880515}, "address": "\u9655\u897f\u7701\u897f\u5b89\u5e02\u83b2\u6e56\u533a\u897f\u5927\u8857129\u53f7\u90fd\u57ce\u968d\u5e99\u6279\u53d1\u5e02\u573a\u4e00\u53f7", "province": "\u9655\u897f\u7701", "city": "\u897f\u5b89\u5e02", "area": "\u83b2\u6e56\u533a", "street_id": "bd69c6f5e849e4d87dc876ab", "telephone": "(029)87278333", "detail": 1, "uid": "bd69c6f5e849e4d87dc876ab", "detail_info": {"distance": 896, "tag": "\u65c5\u6e38\u666f\u70b9;\u6587\u7269\u53e4\u8ff9", "navi_location": {"lng": 108.94376696542, "lat": 34.265796109366}, "type": "scope", "detail_url": "http://api.map.baidu.com/place/detail?uid=bd69c6f5e849e4d87dc876ab&output=html&source=placeapi_v2", "children": [], "lat": 34.2624598179609, "lng": 108.93269259880515}}, {"name": "\u897f\u6587\u6295\u827a\u535a\u9986", "location": {"lat": 34.255360400657565, "lng": 108.94996979886075}, "address": "\u5f00\u901a\u897f\u5df75\u53f7\u5367\u9f99\u7985\u5bfa\u5bf9\u9762", "province": "\u9655\u897f\u7701", "city": "\u897f\u5b89\u5e02", "area": "\u7891\u6797\u533a", "detail": 1, "uid": "ae5959f82402ee8fa204643c", "detail_info": {"distance": 938, "tag": "\u65c5\u6e38\u666f\u70b9;\u535a\u7269\u9986", "type": "scope", "detail_url": "http://api.map.baidu.com/place/detail?uid=ae5959f82402ee8fa204643c&output=html&source=placeapi_v2", "overall_rating": "5", "comment_num": "3", "children": [], "lat": 34.255360400657565, "lng": 108.94996979886075}}, {"name": "\u79d1\u5b66\u5b9e\u9a8c\u5ba4(\u9655\u897f\u79d1\u5b66\u6280\u672f\u9986)", "location": {"lat": 34.265469294034595, "lng": 108.95157963334405}, "address": "\u897f\u5b89\u5e02\u65b0\u57ce\u533a\u4e1c\u65b0\u8857252\u53f7\u9655\u897f\u79d1\u6280\u9986F5", "province": "\u9655\u897f\u7701", "city": "\u897f\u5b89\u5e02", "area": "\u65b0\u57ce\u533a", "street_id": "7b6ebe817780eb439a0050f5", "detail": 1, "uid": "7b6ebe817780eb439a0050f5", "detail_info": {"distance": 987, "tag": "\u65c5\u6e38\u666f\u70b9;\u5176\u4ed6", "indoor_floor": "F5", "type": "scope", "detail_url": "http://api.map.baidu.com/place/detail?uid=7b6ebe817780eb439a0050f5&output=html&source=placeapi_v2", "children": [], "lat": 34.265469294034595, "lng": 108.95157963334405}}, {"name": "\u9752\u94dc\u9986", "location": {"lat": 34.253807265243545, "lng": 108.94645894363703}, "address": "\u897f\u5b89\u5e02\u7891\u6797\u533a\u4e09\u5b66\u8857\u897f\u5b89\u6587\u7406\u5b66\u9662(\u4e66\u9662\u6821\u533a)\u4e1c\u5357\u4fa7\u7ea6150\u7c73", "province": "\u9655\u897f\u7701", "city": "\u897f\u5b89\u5e02", "area": "\u7891\u6797\u533a", "street_id": "d5398b32b6bcb5d92afc484b", "detail": 1, "uid": "d5398b32b6bcb5d92afc484b", "detail_info": {"distance": 883, "tag": "\u65c5\u6e38\u666f\u70b9", "type": "scope", "detail_url": "http://api.map.baidu.com/place/detail?uid=d5398b32b6bcb5d92afc484b&output=html&source=placeapi_v2", "image_num": "1", "children": [], "lat": 34.253807265243545, "lng": 108.94645894363703}}, {"name": "\u8fbe\u6469\u9762\u58c1\u56fe", "location": {"lat": 34.256406514909884, "lng": 108.9481475105087}, "address": "\u897f\u5b89\u5e02\u7891\u6797\u533a\u6587\u660c\u95e8\u5185\u4e09\u5b66\u885715\u53f7\u897f\u5b89\u7891\u6797\u535a\u7269\u9986F1\u5c42", "province": "\u9655\u897f\u7701", "city": "\u897f\u5b89\u5e02", "area": "\u7891\u6797\u533a", "detail": 1, "uid": "4ab7a1ca382ec35521f01781", "detail_info": {"distance": 736, "tag": "\u65c5\u6e38\u666f\u70b9;\u666f\u70b9", "type": "scope", "detail_url": "http://api.map.baidu.com/place/detail?uid=4ab7a1ca382ec35521f01781&output=html&source=placeapi_v2", "children": [], "lat": 34.256406514909884, "lng": 108.9481475105087}}, {"name": "\u9ec4\u5ead\u575a\u4e03\u8a00\u8bd7", "location": {"lat": 34.25641510609356, "lng": 108.94819545776748}, "address": "\u897f\u5b89\u5e02\u7891\u6797\u533a\u6587\u660c\u95e8\u5185\u4e09\u5b66\u885715\u53f7\u897f\u5b89\u7891\u6797\u535a\u7269\u9986", "province": "\u9655\u897f\u7701", "city": "\u897f\u5b89\u5e02", "area": "\u7891\u6797\u533a", "street_id": "87bae5dd20fab8b9e8f85385", "detail": 1, "uid": "87bae5dd20fab8b9e8f85385", "detail_info": {"distance": 739, "tag": "\u65c5\u6e38\u666f\u70b9;\u666f\u70b9", "type": "life", "detail_url": "http://api.map.baidu.com/place/detail?uid=87bae5dd20fab8b9e8f85385&output=html&source=placeapi_v2", "children": [], "lat": 34.25641510609356, "lng": 108.94819545776748}}, {"name": "\u594e\u661f\u9601", "location": {"lat": 34.25455266647808, "lng": 108.94887689821424}, "address": "\u9655\u897f\u7701\u897f\u5b89\u5e02\u7891\u6797\u533a\u4e8c\u73af\u8def\u6cbf\u7ebf\u5546\u4e1a\u7ecf\u6d4e\u5e26\u67cf\u6811\u67972\u53f7", "province": "\u9655\u897f\u7701", "city": "\u897f\u5b89\u5e02", "area": "\u7891\u6797\u533a", "street_id": "2e44868c1d52109a8c1a8920", "detail": 1, "uid": "2e44868c1d52109a8c1a8920", "detail_info": {"distance": 932, "tag": "\u65c5\u6e38\u666f\u70b9;\u6587\u7269\u53e4\u8ff9", "type": "scope", "detail_url": "http://api.map.baidu.com/place/detail?uid=2e44868c1d52109a8c1a8920&output=html&source=placeapi_v2", "overall_rating": "4.4", "comment_num": "8", "children": [], "lat": 34.25455266647808, "lng": 108.94887689821424}}, {"name": "\u6709\u611f\u6709\u5e94\u724c\u574a", "location": {"lat": 34.26329561841498, "lng": 108.93264323889075}, "address": "\u897f\u5927\u8857129\u53f7", "province": "\u9655\u897f\u7701", "city": "\u897f\u5b89\u5e02", "area": "\u83b2\u6e56\u533a", "street_id": "81b0d4933107117c9900504f", "detail": 1, "uid": "81b0d4933107117c9900504f", "detail_info": {"distance": 920, "tag": "\u65c5\u6e38\u666f\u70b9;\u666f\u70b9", "navi_location": {"lng": 108.94380673341, "lat": 34.267820140455}, "type": "scope", "detail_url": "http://api.map.baidu.com/place/detail?uid=81b0d4933107117c9900504f&output=html&source=placeapi_v2", "children": [], "lat": 34.26329561841498, "lng": 108.93264323889075}}, {"name": "\u795e\u529f\u9601", "location": {"lat": 34.25380969561346, "lng": 108.94651690197848}, "address": "\u897f\u5b89\u5e02\u7891\u6797\u533a\u4e09\u5b66\u885744\u53f7\u7eff\u6a44\u6984\u9644\u8fd1", "province": "\u9655\u897f\u7701", "city": "\u897f\u5b89\u5e02", "area": "\u7891\u6797\u533a", "street_id": "7aea43b7576f9be17c29bdd6", "detail": 1, "uid": "7aea43b7576f9be17c29bdd6", "detail_info": {"distance": 885, "tag": "\u65c5\u6e38\u666f\u70b9;\u6587\u7269\u53e4\u8ff9", "type": "scope", "detail_url": "http://api.map.baidu.com/place/detail?uid=7aea43b7576f9be17c29bdd6&output=html&source=placeapi_v2", "overall_rating": "0", "comment_num": "1", "children": [], "lat": 34.25380969561346, "lng": 108.94651690197848}}, {"name": "\u949f", "location": {"lat": 34.2528554493827, "lng": 108.94278695669941}, "address": "\u897f\u5b89\u5e02\u7891\u6797\u533a\u5357\u5927\u8857\u897f\u5b89\u57ce\u5899\u5185", "province": "\u9655\u897f\u7701", "city": "\u897f\u5b89\u5e02", "area": "\u7891\u6797\u533a", "street_id": "ae01f78213f93d803586f48e", "detail": 1, "uid": "ae01f78213f93d803586f48e", "detail_info": {"distance": 909, "tag": "\u65c5\u6e38\u666f\u70b9;\u666f\u70b9", "type": "scope", "detail_url": "http://api.map.baidu.com/place/detail?uid=ae01f78213f93d803586f48e&output=html&source=placeapi_v2", "children": [], "lat": 34.2528554493827, "lng": 108.94278695669941}}, {"name": "\u654c\u697c", "location": {"lat": 34.25335756542742, "lng": 108.93777975624074}, "address": "\u897f\u5b89\u5e02\u7891\u6797\u533a\u73af\u57ce\u5357\u8def\u897f\u5b89\u57ce\u5899(\u73af\u57ce\u5357\u8def)\u5185", "province": "\u9655\u897f\u7701", "city": "\u897f\u5b89\u5e02", "area": "\u7891\u6797\u533a", "street_id": "a6750d632ef2062f6ca3ccc2", "detail": 1, "uid": "a6750d632ef2062f6ca3ccc2", "detail_info": {"distance": 956, "tag": "\u65c5\u6e38\u666f\u70b9;\u666f\u70b9", "type": "scope", "detail_url": "http://api.map.baidu.com/place/detail?uid=a6750d632ef2062f6ca3ccc2&output=html&source=placeapi_v2", "children": [], "lat": 34.25335756542742, "lng": 108.93777975624074}}, {"name": "\u91d1\u82b1\u949f\u697c", "location": {"lat": 34.26896988247445, "lng": 108.94698703281607}, "address": "\u897f\u5b89\u5e02\u65b0\u57ce\u533a\u7687\u57ce\u897f\u8def\u9655\u897f\u7701\u653f\u5e9c\u897f\u5317\u4fa7\u7ea630\u7c73", "province": "\u9655\u897f\u7701", "city": "\u897f\u5b89\u5e02", "area": "\u65b0\u57ce\u533a", "street_id": "6a9f6b2f34a5e47c734b87d0", "detail": 1, "uid": "6a9f6b2f34a5e47c734b87d0", "detail_info": {"distance": 985, "tag": "\u65c5\u6e38\u666f\u70b9;\u666f\u70b9", "type": "scope", "detail_url": "http://api.map.baidu.com/place/detail?uid=6a9f6b2f34a5e47c734b87d0&output=html&source=placeapi_v2", "children": [], "lat": 34.26896988247445, "lng": 108.94698703281607}}, {"name": "\u9e3f\u9e44\u8349\u5802", "location": {"lat": 34.25383525555658, "lng": 108.94438788786837}, "address": "\u4e66\u9662\u95e88\u53f7\u897f\u5b89\u4e66\u9662\u95e8\u53e4\u73a9\u827a\u672f\u57ce\u4e09\u697c", "province": "\u9655\u897f\u7701", "city": "\u897f\u5b89\u5e02", "area": "\u7891\u6797\u533a", "telephone": "15094096881", "detail": 1, "uid": "95428dff1a7b73251ee9997d", "detail_info": {"distance": 819, "tag": "\u65c5\u6e38\u666f\u70b9", "type": "scope", "detail_url": "http://api.map.baidu.com/place/detail?uid=95428dff1a7b73251ee9997d&output=html&source=placeapi_v2", "image_num": "1", "comment_num": "1", "children": [], "lat": 34.25383525555658, "lng": 108.94438788786837}}, {"name": "\u897f\u5b89\u5e02\u65b0\u7f8e\u57ce\u548c\u955c\u535a\u7269\u9986", "location": {"lat": 34.253873474356254, "lng": 108.93733148758832}, "address": "\u9655\u897f\u7701\u897f\u5b89\u5e02\u7891\u6797\u533a\u5927\u8f66\u5bb6\u5df7\u6e58\u5b50\u5e9970\u53f7\u7f8e\u672f\u9986", "province": "\u9655\u897f\u7701", "city": "\u897f\u5b89\u5e02", "area": "\u7891\u6797\u533a", "street_id": "053b50b31a4a8af86849f314", "detail": 1, "uid": "053b50b31a4a8af86849f314", "detail_info": {"distance": 926, "tag": "\u65c5\u6e38\u666f\u70b9;\u535a\u7269\u9986", "type": "scope", "detail_url": "http://api.map.baidu.com/place/detail?uid=053b50b31a4a8af86849f314&output=html&source=placeapi_v2", "overall_rating": "4", "comment_num": "1", "children": [], "lat": 34.253873474356254, "lng": 108.93733148758832}}, {"name": "\u5357\u95e8\u6708\u57ce\u7684\u5185\u90e8\u7ed3\u6784", "location": {"lat": 34.25228448037531, "lng": 108.94239235662462}, "address": "\u897f\u5b89\u5e02\u7891\u6797\u533a\u5357\u5927\u8857\u897f\u5b89\u57ce\u5899\u5185", "province": "\u9655\u897f\u7701", "city": "\u897f\u5b89\u5e02", "area": "\u7891\u6797\u533a", "street_id": "97226605b0bb6a9c2db908a2", "detail": 1, "uid": "97226605b0bb6a9c2db908a2", "detail_info": {"distance": 972, "tag": "\u65c5\u6e38\u666f\u70b9;\u666f\u70b9", "type": "scope", "detail_url": "http://api.map.baidu.com/place/detail?uid=97226605b0bb6a9c2db908a2&output=html&source=placeapi_v2", "children": [], "lat": 34.25228448037531, "lng": 108.94239235662462}}, {"name": "\u897f\u5b89\u7891\u6797\u535a\u7269\u9986-\u7b2c\u4e03\u5ba4", "location": {"lat": 34.2560409998751, "lng": 108.94786353064173}, "address": "\u897f\u5b89\u5e02\u7891\u6797\u533a\u4e09\u5b66\u885715\u53f7(\u8fd1\u4e66\u9662\u95e8)\u897f\u5b89\u7891\u6797\u535a\u7269\u9986\u5185", "province": "\u9655\u897f\u7701", "city": "\u897f\u5b89\u5e02", "area": "\u7891\u6797\u533a", "street_id": "2766ea372a1859b4f60e7777", "detail": 1, "uid": "2766ea372a1859b4f60e7777", "detail_info": {"distance": 747, "tag": "\u65c5\u6e38\u666f\u70b9;\u666f\u70b9", "type": "scope", "detail_url": "http://api.map.baidu.com/place/detail?uid=2766ea372a1859b4f60e7777&output=html&source=placeapi_v2", "overall_rating": "0.0", "children": [], "lat": 34.2560409998751, "lng": 108.94786353064173}}, {"name": "\u897f\u5b89\u7891\u6797\u535a\u7269\u9986-\u7b2c\u4e00\u5ba4", "location": {"lat": 34.25582085842895, "lng": 108.9481130368023}, "address": "\u897f\u5b89\u5e02\u7891\u6797\u533a\u4e09\u5b66\u885715\u53f7(\u8fd1\u4e66\u9662\u95e8)\u897f\u5b89\u7891\u6797\u535a\u7269\u9986\u5185", "province": "\u9655\u897f\u7701", "city": "\u897f\u5b89\u5e02", "area": "\u7891\u6797\u533a", "street_id": "b7fb2ef9cb3e9299770269b3", "detail": 1, "uid": "b7fb2ef9cb3e9299770269b3", "detail_info": {"distance": 781, "tag": "\u65c5\u6e38\u666f\u70b9;\u666f\u70b9", "navi_location": {"lng": 108.95860066994, "lat": 34.260237803314}, "type": "scope", "detail_url": "http://api.map.baidu.com/place/detail?uid=b7fb2ef9cb3e9299770269b3&output=html&source=placeapi_v2", "children": [], "lat": 34.25582085842895, "lng": 108.9481130368023}}, {"name": "\u5929\u5e08\u9053", "location": {"lat": 34.25538533615448, "lng": 108.9504159795227}, "address": "\u897f\u5b89\u5e02\u7891\u6797\u533a\u5f00\u901a\u897f\u5df7\u73ba\u97f5\u5047\u65e5\u5927\u9152\u5e97", "province": "\u9655\u897f\u7701", "city": "\u897f\u5b89\u5e02", "area": "\u7891\u6797\u533a", "street_id": "10a1e13cc72787baa8f0cda2", "detail": 1, "uid": "10a1e13cc72787baa8f0cda2", "detail_info": {"distance": 967, "tag": "\u65c5\u6e38\u666f\u70b9;\u98ce\u666f\u533a", "type": "scope", "detail_url": "http://api.map.baidu.com/place/detail?uid=10a1e13cc72787baa8f0cda2&output=html&source=placeapi_v2", "image_num": "2", "children": [], "lat": 34.25538533615448, "lng": 108.9504159795227}}, {"name": "\u91d1\u521a\u9020\u50cf", "location": {"lat": 34.25578174892718, "lng": 108.94872818111254}, "address": "\u897f\u5b89\u5e02\u7891\u6797\u533a\u6587\u660c\u95e8\u5185\u4e09\u5b66\u885715\u53f7\u897f\u5b89\u7891\u6797\u535a\u7269\u9986F1\u5c42", "province": "\u9655\u897f\u7701", "city": "\u897f\u5b89\u5e02", "area": "\u7891\u6797\u533a", "street_id": "bafb90d66fc5046c705e8066", "detail": 1, "uid": "bafb90d66fc5046c705e8066", "detail_info": {"distance": 823, "tag": "\u65c5\u6e38\u666f\u70b9;\u666f\u70b9", "type": "scope", "detail_url": "http://api.map.baidu.com/place/detail?uid=bafb90d66fc5046c705e8066&output=html&source=placeapi_v2", "children": [], "lat": 34.25578174892718, "lng": 108.94872818111254}}, {"name": "\u5723\u4eba\u5cf0", "location": {"lat": 34.262695431027474, "lng": 108.93271386624937}, "address": "\u897f\u5927\u8857129\u53f7", "province": "\u9655\u897f\u7701", "city": "\u897f\u5b89\u5e02", "area": "\u83b2\u6e56\u533a", "detail": 1, "uid": "fa83eac00ac2e9ed871541b7", "detail_info": {"distance": 899, "tag": "\u65c5\u6e38\u666f\u70b9;\u666f\u70b9", "type": "scope", "detail_url": "http://api.map.baidu.com/place/detail?uid=fa83eac00ac2e9ed871541b7&output=html&source=placeapi_v2", "children": [], "lat": 34.262695431027474, "lng": 108.93271386624937}}, {"name": "\u4e5d\u7ecf", "location": {"lat": 34.2557002417511, "lng": 108.9484245295596}, "address": "\u897f\u5b89\u5e02\u7891\u6797\u533a\u6587\u660c\u95e8\u5185\u4e09\u5b66\u885715\u53f7\u897f\u5b89\u7891\u6797\u535a\u7269\u9986F1\u5c42", "province": "\u9655\u897f\u7701", "city": "\u897f\u5b89\u5e02", "area": "\u7891\u6797\u533a", "street_id": "e7db89d18f584106d518b7bf", "detail": 1, "uid": "e7db89d18f584106d518b7bf", "detail_info": {"distance": 810, "tag": "\u65c5\u6e38\u666f\u70b9;\u666f\u70b9", "type": "scope", "detail_url": "http://api.map.baidu.com/place/detail?uid=e7db89d18f584106d518b7bf&output=html&source=placeapi_v2", "children": [], "lat": 34.2557002417511, "lng": 108.9484245295596}}, {"name": "\u7389\u865a\u5802", "location": {"lat": 34.25370294535818, "lng": 108.9457982843015}, "address": "\u987a\u57ce\u5357\u8def\u4e2d\u6bb533\u53f7", "province": "\u9655\u897f\u7701", "city": "\u897f\u5b89\u5e02", "area": "\u7891\u6797\u533a", "street_id": "a3502403a609804ac06c1440", "detail": 1, "uid": "a3502403a609804ac06c1440", "detail_info": {"distance": 870, "tag": "\u65c5\u6e38\u666f\u70b9;\u666f\u70b9", "type": "scope", "detail_url": "http://api.map.baidu.com/place/detail?uid=a3502403a609804ac06c1440&output=html&source=placeapi_v2", "image_num": "1", "children": [], "lat": 34.25370294535818, "lng": 108.9457982843015}}, {"name": "\u90e8\u843d", "location": {"lat": 34.25369847495014, "lng": 108.945941198692}, "address": "\u987a\u57ce\u5357\u8def\u4e2d\u6bb535", "province": "\u9655\u897f\u7701", "city": "\u897f\u5b89\u5e02", "area": "\u7891\u6797\u533a", "street_id": "453938f1eb2fd4524c6d4600", "telephone": "(029)87287768", "detail": 1, "uid": "453938f1eb2fd4524c6d4600", "detail_info": {"distance": 876, "tag": "\u8d2d\u7269;\u5546\u94fa", "navi_location": {"lng": 108.95691089709, "lat": 34.258318821315}, "type": "scope", "detail_url": "http://api.map.baidu.com/place/detail?uid=453938f1eb2fd4524c6d4600&output=html&source=placeapi_v2", "comment_num": "3", "children": [], "lat": 34.25369847495014, "lng": 108.945941198692}}, {"name": "\u897f\u5b89\u57ce\u5899-\u95f8\u697c", "location": {"lat": 34.25230256418046, "lng": 108.94222930331773}, "address": "\u897f\u5b89\u5e02\u7891\u6797\u533a\u5357\u5927\u8857\u897f\u5b89\u57ce\u5899\u5185", "province": "\u9655\u897f\u7701", "city": "\u897f\u5b89\u5e02", "area": "\u7891\u6797\u533a", "street_id": "f0d4f679188ab3b9882fb5c1", "detail": 1, "uid": "f0d4f679188ab3b9882fb5c1", "detail_info": {"distance": 971, "tag": "\u65c5\u6e38\u666f\u70b9;\u666f\u70b9", "type": "scope", "detail_url": "http://api.map.baidu.com/place/detail?uid=f0d4f679188ab3b9882fb5c1&output=html&source=placeapi_v2", "overall_rating": "0", "comment_num": "1", "children": [], "lat": 34.25230256418046, "lng": 108.94222930331773}}, {"name": "\u672c\u547d\u6bbf", "location": {"lat": 34.26282291618576, "lng": 108.93251348615411}, "address": "\u897f\u5927\u8857129\u53f7", "province": "\u9655\u897f\u7701", "city": "\u897f\u5b89\u5e02", "area": "\u83b2\u6e56\u533a", "street_id": "e302b719c9a4492327d2bb64", "detail": 1, "uid": "e302b719c9a4492327d2bb64", "detail_info": {"distance": 919, "tag": "\u65c5\u6e38\u666f\u70b9;\u6587\u7269\u53e4\u8ff9", "navi_location": {"lng": 108.94376497747, "lat": 34.265794078203}, "type": "scope", "detail_url": "http://api.map.baidu.com/place/detail?uid=e302b719c9a4492327d2bb64&output=html&source=placeapi_v2", "overall_rating": "0.0", "children": [], "lat": 34.26282291618576, "lng": 108.93251348615411}}, {"name": "\u5723\u6bcd\u6bbf", "location": {"lat": 34.263173409323294, "lng": 108.93288572269498}, "address": "\u897f\u5927\u8857129\u53f7", "province": "\u9655\u897f\u7701", "city": "\u897f\u5b89\u5e02", "area": "\u83b2\u6e56\u533a", "street_id": "ca8cb96fb2780a77631c6799", "detail": 1, "uid": "ca8cb96fb2780a77631c6799", "detail_info": {"distance": 895, "tag": "\u65c5\u6e38\u666f\u70b9;\u6587\u7269\u53e4\u8ff9", "navi_location": {"lng": 108.94399099473, "lat": 34.267640126466}, "type": "scope", "detail_url": "http://api.map.baidu.com/place/detail?uid=ca8cb96fb2780a77631c6799&output=html&source=placeapi_v2", "children": [], "lat": 34.263173409323294, "lng": 108.93288572269498}}, {"name": "\u5fe0\u5b5d\u7960", "location": {"lat": 34.26281923420934, "lng": 108.93278214690733}, "address": "\u897f\u5b89\u5e02\u83b2\u6e56\u533a\u5927\u5b66\u4e60\u5df7\u90fd\u57ce\u968d\u5e99", "province": "\u9655\u897f\u7701", "city": "\u897f\u5b89\u5e02", "area": "\u83b2\u6e56\u533a", "street_id": "9782e012c83ffdbd250bd088", "telephone": "(029)87278333", "detail": 1, "uid": "9782e012c83ffdbd250bd088", "detail_info": {"distance": 895, "tag": "\u65c5\u6e38\u666f\u70b9;\u6587\u7269\u53e4\u8ff9", "navi_location": {"lng": 108.94388084002, "lat": 34.267345462458}, "type": "scope", "detail_url": "http://api.map.baidu.com/place/detail?uid=9782e012c83ffdbd250bd088&output=html&source=placeapi_v2", "overall_rating": "0.0", "children": [], "lat": 34.26281923420934, "lng": 108.93278214690733}}, {"name": "\u7687\u752b\u8bde\u7891", "location": {"lat": 34.25599473141692, "lng": 108.94812617336211}, "address": "\u897f\u5b89\u5e02\u7891\u6797\u533a\u6587\u660c\u95e8\u5185\u4e09\u5b66\u885715\u53f7\u897f\u5b89\u7891\u6797\u535a\u7269\u9986F1\u5c42", "province": "\u9655\u897f\u7701", "city": "\u897f\u5b89\u5e02", "area": "\u7891\u6797\u533a", "detail": 1, "uid": "fe30b6c6d363aa682efaa71e", "detail_info": {"distance": 767, "tag": "\u65c5\u6e38\u666f\u70b9;\u6587\u7269\u53e4\u8ff9", "type": "scope", "detail_url": "http://api.map.baidu.com/place/detail?uid=fe30b6c6d363aa682efaa71e&output=html&source=placeapi_v2", "children": [], "lat": 34.25599473141692, "lng": 108.94812617336211}}, {"name": "\u66ae\u5149\u68ee\u6797", "location": {"lat": 34.25822413231186, "lng": 108.94653676332436}, "address": "\u897f\u5b89\u5e02\u7891\u6797\u533a\u9aa1\u9a6c\u5e02\u5546\u4e1a\u6b65\u884c\u8857\u5174\u6b63\u5143\u5e7f\u573aD\u5ea7", "province": "\u9655\u897f\u7701", "city": "\u897f\u5b89\u5e02", "area": "\u7891\u6797\u533a", "detail": 1, "uid": "532b5dd56062a764fda7780a", "detail_info": {"distance": 493, "tag": "\u7f8e\u98df;\u5496\u5561\u5385", "type": "cater", "detail_url": "http://api.map.baidu.com/place/detail?uid=532b5dd56062a764fda7780a&output=html&source=placeapi_v2", "price": "36.0", "children": [], "lat": 34.25822413231186, "lng": 108.94653676332436}}, {"name": "\u706b\u795e\u6bbf", "location": {"lat": 34.26317572777915, "lng": 108.93252283092166}, "address": "\u897f\u5927\u8857129\u53f7", "province": "\u9655\u897f\u7701", "city": "\u897f\u5b89\u5e02", "area": "\u83b2\u6e56\u533a", "detail": 1, "uid": "7d157c97a244179d25e0a02d", "detail_info": {"distance": 927, "tag": "\u65c5\u6e38\u666f\u70b9;\u6587\u7269\u53e4\u8ff9", "type": "scope", "detail_url": "http://api.map.baidu.com/place/detail?uid=7d157c97a244179d25e0a02d&output=html&source=placeapi_v2", "children": [], "lat": 34.26317572777915, "lng": 108.93252283092166}}, {"name": "\u51e4\u6816\u5c71\u4eba\u6587\u7eaa\u5ff5\u56ed", "location": {"lat": 34.2540885000597, "lng": 108.94915907330343}, "address": "\u897f\u5b89\u5e02\u7891\u6797\u533a\u67cf\u6811\u6797\u7891\u6797\u533a\u5c11\u5e74\u5bab", "province": "\u9655\u897f\u7701", "city": "\u897f\u5b89\u5e02", "area": "\u7891\u6797\u533a", "street_id": "cd9315f4da85d2b32a02e183", "telephone": "(029)87240297,18092183788", "detail": 1, "uid": "cd9315f4da85d2b32a02e183", "detail_info": {"distance": 989, "tag": "\u65c5\u6e38\u666f\u70b9;\u6587\u7269\u53e4\u8ff9", "type": "scope", "detail_url": "http://api.map.baidu.com/place/detail?uid=cd9315f4da85d2b32a02e183&output=html&source=placeapi_v2", "children": [], "lat": 34.2540885000597, "lng": 108.94915907330343}}, {"name": "\u6021\u4e50\u5e99", "location": {"lat": 34.25226113719396, "lng": 108.94054216436326}, "address": "\u897f\u5b89\u5e02\u7891\u6797\u533a\u73af\u57ce\u5357\u8def\u897f\u6bb5\u677e\u56ed(\u73af\u57ce\u5357\u8def\u897f\u6bb5)", "province": "\u9655\u897f\u7701", "city": "\u897f\u5b89\u5e02", "area": "\u7891\u6797\u533a", "street_id": "0b008c4d823120bac51b7568", "detail": 1, "uid": "0b008c4d823120bac51b7568", "detail_info": {"distance": 991, "tag": "\u65c5\u6e38\u666f\u70b9;\u5bfa\u5e99", "type": "scope", "detail_url": "http://api.map.baidu.com/place/detail?uid=0b008c4d823120bac51b7568&output=html&source=placeapi_v2", "image_num": "1", "children": [], "lat": 34.25226113719396, "lng": 108.94054216436326}}, {"name": "\u897f\u5b89\u51b0\u5cf0", "location": {"lat": 34.26865882002521, "lng": 108.93781441124123}, "address": "\u7ea2\u57e0\u88577\u53f7", "province": "\u9655\u897f\u7701", "city": "\u897f\u5b89\u5e02", "area": "\u83b2\u6e56\u533a", "detail": 1, "uid": "b8c3a5ff333dda28dc1e52d0", "detail_info": {"distance": 938, "tag": "\u7f8e\u98df;\u86cb\u7cd5\u751c\u54c1\u5e97", "type": "cater", "detail_url": "http://api.map.baidu.com/place/detail?uid=b8c3a5ff333dda28dc1e52d0&output=html&source=placeapi_v2", "children": [], "lat": 34.26865882002521, "lng": 108.93781441124123}}, {"name": "\u57ce\u5899\u6545\u4e8b", "location": {"lat": 34.253505151072005, "lng": 108.94587707411789}, "address": "\u897f\u5b89\u5e02\u7891\u6797\u533a\u987a\u57ce\u5357\u8def\u4e1c\u6bb5\u897f\u5b89\u57ce\u5899", "province": "\u9655\u897f\u7701", "city": "\u897f\u5b89\u5e02", "area": "\u7891\u6797\u533a", "detail": 1, "uid": "229f5283c2de51ff871541d6", "detail_info": {"distance": 894, "tag": "\u8d2d\u7269;\u5176\u4ed6", "type": "scope", "detail_url": "http://api.map.baidu.com/place/detail?uid=229f5283c2de51ff871541d6&output=html&source=placeapi_v2", "image_num": "1", "comment_num": "0", "children": [], "lat": 34.253505151072005, "lng": 108.94587707411789}}, {"name": "\u5929\u771f\u5802", "location": {"lat": 34.253804529734204, "lng": 108.94653388463105}, "address": "\u9655\u897f\u7701\u897f\u5b89\u5e02\u7891\u6797\u533a\u4e09\u5b66\u885746\u53f7", "province": "\u9655\u897f\u7701", "city": "\u897f\u5b89\u5e02", "area": "\u7891\u6797\u533a", "street_id": "a2019fad6d5a01422906cee9", "detail": 1, "uid": "a2019fad6d5a01422906cee9", "detail_info": {"distance": 886, "tag": "\u533b\u7597;\u836f\u5e97", "type": "hospital", "detail_url": "http://api.map.baidu.com/place/detail?uid=a2019fad6d5a01422906cee9&output=html&source=placeapi_v2", "image_num": "10", "comment_num": "1", "children": [], "lat": 34.253804529734204, "lng": 108.94653388463105}}, {"name": "\u6587\u96c5\u9601(\u4e09\u5b66\u8857\u5e97)", "location": {"lat": 34.25393936704158, "lng": 108.94904911690033}, "address": "\u897f\u5b89\u5e02\u7891\u6797\u533a\u67cf\u6811\u67974\u53f7", "province": "\u9655\u897f\u7701", "city": "\u897f\u5b89\u5e02", "area": "\u7891\u6797\u533a", "street_id": "1bc903ea698030f42a06ce1f", "telephone": "(029)87381253,18629018768", "detail": 1, "uid": "1bc903ea698030f42a06ce1f", "detail_info": {"distance": 995, "tag": "\u8d2d\u7269;\u5546\u94fa", "type": "scope", "detail_url": "http://api.map.baidu.com/place/detail?uid=1bc903ea698030f42a06ce1f&output=html&source=placeapi_v2", "overall_rating": "4.0", "comment_num": "8", "children": [], "lat": 34.25393936704158, "lng": 108.94904911690033}}]
